{"center": {"lat": 18.52137, "lng": 73.85451}, "zoom": 12, "size": 19, "size_pixels": 640, "travel_mode": "TRANSIT", "locations": [{"raw_location": {"lat": 18.625079948338577, "lng": 73.745135}, "snapped_location": {"lat": 18.6247673, "lng": 73.74487429999999}, "grid_x": 0, "grid_y": 0, "snap_result_types": ["route"], "snap_result_place_id": "ChIJ51BrNSa6wjsRIiA2FUgg-b8"}, {"raw_location": {"lat": 18.625079948338577, "lng": 73.75728777777778}, "snapped_location": {"lat": 18.6250601, "lng": 73.7574461}, "grid_x": 1, "grid_y": 0, "snap_result_types": ["route"], "snap_result_place_id": "ChIJJQeOiI-5wjsRihooc6DyVYY"}, {"raw_location": {"lat": 18.625079948338577, "lng": 73.76944055555556}, "snapped_location": {"lat": 18.6243718, "lng": 73.7697018}, "grid_x": 2, "grid_y": 0, "snap_result_types": ["route"], "snap_result_place_id": "ChIJVw74FJi5wjsRdjPM7ltUFPY"}, {"raw_location": {"lat": 18.625079948338577, "lng": 73.78159333333333}, "snapped_location": {"lat": 18.6253162, "lng": 73.78121449999999}, "grid_x": 3, "grid_y": 0, "snap_result_types": ["route"], "snap_result_place_id": "ChIJ53uWF6W5wjsRhLFLkrjgK4E"}, {"raw_location": {"lat": 18.625079948338577, "lng": 73.79374611111112}, "snapped_location": {"lat": 18.6242465, "lng": 73.7931906}, "grid_x": 4, "grid_y": 0, "snap_result_types": ["route"], "snap_result_place_id": "ChIJBacV6ay5wjsRaokJsLXGZQM"}, {"raw_location": {"lat": 18.625079948338577, "lng": 73.80589888888889}, "snapped_location": {"lat": 18.6256397, "lng": 73.8060639}, "grid_x": 5, "grid_y": 0, "snap_result_types": ["route"], "snap_result_place_id": "ChIJt5sBhVC4wjsRuqsw9VF65q4"}, {"raw_location": {"lat": 18.625079948338577, "lng": 73.81805166666668}, "snapped_location": {"lat": 18.6250139, "lng": 73.81772670000001}, "grid_x": 6, "grid_y": 0, "snap_result_types": ["route"], "snap_result_place_id": "ChIJfVaq5l24wjsROCYn6wjXOTs"}, {"raw_location": {"lat": 18.625079948338577, "lng": 73.83020444444445}, "snapped_location": {"lat": 18.6248758, "lng": 73.82953909999999}, "grid_x": 7, "grid_y": 0, "snap_result_types": ["route"], "snap_result_place_id": "ChIJpe8aqWS4wjsRtE9ui2h-k6c"}, {"raw_location": {"lat": 18.625079948338577, "lng": 73.84235722222223}, "snapped_location": {"lat": 18.6252379, "lng": 73.84294030000001}, "grid_x": 8, "grid_y": 0, "snap_result_types": ["route"], "snap_result_place_id": "ChIJ6xCNvYDHwjsRDiu4_2yA9TU"}, {"raw_location": {"lat": 18.625079948338577, "lng": 73.85451}, "snapped_location": {"lat": 18.6250817, "lng": 73.8548811}, "grid_x": 9, "grid_y": 0, "snap_result_types": ["route"], "snap_result_place_id": "ChIJWQwB3pzHwjsReO8owAHhEso"}, {"raw_location": {"lat": 18.625079948338577, "lng": 73.86666277777778}, "snapped_location": {"lat": 18.6249562, "lng": 73.8665364}, "grid_x": 10, "grid_y": 0, "snap_result_types": ["route"], "snap_result_place_id": "ChIJnUz1OaDHwjsRdlrTJzvAeAE"}, {"raw_location": {"lat": 18.625079948338577, "lng": 73.87881555555556}, "snapped_location": {"lat": 18.6234981, "lng": 73.8821564}, "grid_x": 11, "grid_y": 0, "snap_result_types": ["route"], "snap_result_place_id": "ChIJ9S0EQAfHwjsRrMZOJVxn788"}, {"raw_location": {"lat": 18.625079948338577, "lng": 73.89096833333333}, "snapped_location": {"lat": 18.6238725, "lng": 73.89053729999999}, "grid_x": 12, "grid_y": 0, "snap_result_types": ["route"], "snap_result_place_id": "ChIJUX3Ukv_GwjsRcL4cE8ZVWz0"}, {"raw_location": {"lat": 18.625079948338577, "lng": 73.90312111111112}, "snapped_location": {"lat": 18.623904, "lng": 73.9032709}, "grid_x": 13, "grid_y": 0, "snap_result_types": ["route"], "snap_result_place_id": "ChIJJ_1RMvbGwjsRYFpML4CQAFs"}, {"raw_location": {"lat": 18.625079948338577, "lng": 73.91527388888889}, "snapped_location": {"lat": 18.6251219, "lng": 73.9150571}, "grid_x": 14, "grid_y": 0, "snap_result_types": ["route"], "snap_result_place_id": "ChIJc1MN94rGwjsRfLCYOsyZmW8"}, {"raw_location": {"lat": 18.625079948338577, "lng": 73.92742666666668}, "snapped_location": {"lat": 18.6253924, "lng": 73.9275718}, "grid_x": 15, "grid_y": 0, "snap_result_types": ["route"], "snap_result_place_id": "ChIJ6V8aAofGwjsRMiQnQ26MA90"}, {"raw_location": {"lat": 18.625079948338577, "lng": 73.93957944444445}, "snapped_location": {"lat": 18.6263367, "lng": 73.94077229999999}, "grid_x": 16, "grid_y": 0, "snap_result_types": ["route"], "snap_result_place_id": "ChIJj5lFDyvEwjsRZgw101EDe6I"}, {"raw_location": {"lat": 18.625079948338577, "lng": 73.95173222222223}, "snapped_location": {"lat": 18.6250483, "lng": 73.9514945}, "grid_x": 17, "grid_y": 0, "snap_result_types": ["route"], "snap_result_place_id": "ChIJv31j1zPEwjsR0Ld7gcg7WcM"}, {"raw_location": {"lat": 18.625079948338577, "lng": 73.963885}, "snapped_location": {"lat": 18.6273824, "lng": 73.962152}, "grid_x": 18, "grid_y": 0, "snap_result_types": ["route"], "snap_result_place_id": "ChIJMyE_TErEwjsRFkinwog4g-U"}, {"raw_location": {"lat": 18.613556620745403, "lng": 73.745135}, "snapped_location": {"lat": 18.6134088, "lng": 73.7447541}, "grid_x": 0, "grid_y": 1, "snap_result_types": ["route"], "snap_result_place_id": "ChIJFXSXKCu6wjsRtIZ4Iub4K78"}, {"raw_location": {"lat": 18.613556620745403, "lng": 73.75728777777778}, "snapped_location": {"lat": 18.6143528, "lng": 73.7555205}, "grid_x": 1, "grid_y": 1, "snap_result_types": ["route"], "snap_result_place_id": "ChIJp0Z5PIK5wjsR0NA3gfWHwv4"}, {"raw_location": {"lat": 18.613556620745403, "lng": 73.76944055555556}, "snapped_location": {"lat": 18.6133579, "lng": 73.76967859999999}, "grid_x": 2, "grid_y": 1, "snap_result_types": ["route"], "snap_result_place_id": "ChIJS0pIYXW5wjsRfpALHLFMvLE"}, {"raw_location": {"lat": 18.613556620745403, "lng": 73.78159333333333}, "snapped_location": {"lat": 18.6138358, "lng": 73.7814628}, "grid_x": 3, "grid_y": 1, "snap_result_types": ["route"], "snap_result_place_id": "ChIJ90VWQAi5wjsRXh5DnE1j_zQ"}, {"raw_location": {"lat": 18.613556620745403, "lng": 73.79374611111112}, "snapped_location": {"lat": 18.613418, "lng": 73.79368889999999}, "grid_x": 4, "grid_y": 1, "snap_result_types": ["route"], "snap_result_place_id": "ChIJn-Z0ywG5wjsRAHAVHHHflgM"}, {"raw_location": {"lat": 18.613556620745403, "lng": 73.80589888888889}, "snapped_location": {"lat": 18.6136501, "lng": 73.8066261}, "grid_x": 5, "grid_y": 1, "snap_result_types": ["route"], "snap_result_place_id": "ChIJK0y32Pm4wjsRvrVys7LXVHw"}, {"raw_location": {"lat": 18.613556620745403, "lng": 73.81805166666668}, "snapped_location": {"lat": 18.6140361, "lng": 73.8178164}, "grid_x": 6, "grid_y": 1, "snap_result_types": ["route"], "snap_result_place_id": "ChIJz4Iet_S4wjsRMIpL-3UdbqM"}, {"raw_location": {"lat": 18.613556620745403, "lng": 73.83020444444445}, "snapped_location": {"lat": 18.6137937, "lng": 73.8282847}, "grid_x": 7, "grid_y": 1, "snap_result_types": ["route"], "snap_result_place_id": "ChIJbXE2poi4wjsRNukSlseJSqw"}, {"raw_location": {"lat": 18.613556620745403, "lng": 73.84235722222223}, "snapped_location": {"lat": 18.6160623, "lng": 73.84343799999999}, "grid_x": 8, "grid_y": 1, "snap_result_types": ["route"], "snap_result_place_id": "ChIJef_EbH7HwjsRnPn6C2KTo1A"}, {"raw_location": {"lat": 18.613556620745403, "lng": 73.85451}, "snapped_location": {"lat": 18.6132375, "lng": 73.8549388}, "grid_x": 9, "grid_y": 1, "snap_result_types": ["route"], "snap_result_place_id": "ChIJl74l9XDHwjsRtC3BueQ64OE"}, {"raw_location": {"lat": 18.613556620745403, "lng": 73.86666277777778}, "snapped_location": {"lat": 18.6140989, "lng": 73.86445789999999}, "grid_x": 10, "grid_y": 1, "snap_result_types": ["route"], "snap_result_place_id": "ChIJsR9vKQ3HwjsRUtVZz4oMdRU"}, {"raw_location": {"lat": 18.613556620745403, "lng": 73.87881555555556}, "snapped_location": {"lat": 18.6144244, "lng": 73.8788485}, "grid_x": 11, "grid_y": 1, "snap_result_types": ["route"], "snap_result_place_id": "ChIJibwOEwXHwjsRGh2gGMmnCqU"}, {"raw_location": {"lat": 18.613556620745403, "lng": 73.89096833333333}, "snapped_location": {"lat": 18.6120647, "lng": 73.8900338}, "grid_x": 12, "grid_y": 1, "snap_result_types": ["route"], "snap_result_place_id": "ChIJjwSuUh3HwjsRYvUddA97p4k"}, {"raw_location": {"lat": 18.613556620745403, "lng": 73.90312111111112}, "snapped_location": {"lat": 18.6131138, "lng": 73.9028737}, "grid_x": 13, "grid_y": 1, "snap_result_types": ["route"], "snap_result_place_id": "ChIJIx74uu_GwjsR8nPqWWjQ9-Y"}, {"raw_location": {"lat": 18.613556620745403, "lng": 73.91527388888889}, "snapped_location": {"lat": 18.6140398, "lng": 73.9155551}, "grid_x": 14, "grid_y": 1, "snap_result_types": ["route"], "snap_result_place_id": "ChIJtyTRX5LGwjsRwiy0qJBtKDc"}, {"raw_location": {"lat": 18.613556620745403, "lng": 73.92742666666668}, "snapped_location": {"lat": 18.6129531, "lng": 73.92855689999999}, "grid_x": 15, "grid_y": 1, "snap_result_types": ["route"], "snap_result_place_id": "ChIJi1GzopvGwjsRBihQTgkqTtA"}, {"raw_location": {"lat": 18.613556620745403, "lng": 73.93957944444445}, "snapped_location": {"lat": 18.6121627, "lng": 73.93969659999999}, "grid_x": 16, "grid_y": 1, "snap_result_types": ["route"], "snap_result_place_id": "ChIJxb8jzSbEwjsRDhHTmxBOUv4"}, {"raw_location": {"lat": 18.613556620745403, "lng": 73.95173222222223}, "snapped_location": {"lat": 18.6132533, "lng": 73.9550927}, "grid_x": 17, "grid_y": 1, "snap_result_types": ["route"], "snap_result_place_id": "ChIJQ8mgyj7EwjsRnn54YvLYtAo"}, {"raw_location": {"lat": 18.613556620745403, "lng": 73.963885}, "snapped_location": {"lat": 18.6134777, "lng": 73.9659094}, "grid_x": 18, "grid_y": 1, "snap_result_types": ["establishment", "park", "point_of_interest"], "snap_result_place_id": "ChIJQVsKMQDFwjsRbUkqvifRnIA"}, {"raw_location": {"lat": 18.60203329315223, "lng": 73.745135}, "snapped_location": {"lat": 18.6020188, "lng": 73.74542009999999}, "grid_x": 0, "grid_y": 2, "snap_result_types": ["route"], "snap_result_place_id": "ChIJv2armte7wjsRQNTGExNHNgE"}, {"raw_location": {"lat": 18.60203329315223, "lng": 73.75728777777778}, "snapped_location": {"lat": 18.6019107, "lng": 73.7574206}, "grid_x": 1, "grid_y": 2, "snap_result_types": ["route"], "snap_result_place_id": "ChIJs5sc0nq5wjsRMoZKyvUZQnc"}, {"raw_location": {"lat": 18.60203329315223, "lng": 73.76944055555556}, "snapped_location": {"lat": 18.601963, "lng": 73.76952399999999}, "grid_x": 2, "grid_y": 2, "snap_result_types": ["route"], "snap_result_place_id": "ChIJUyqsb225wjsRxv5_MF16Z58"}, {"raw_location": {"lat": 18.60203329315223, "lng": 73.78159333333333}, "snapped_location": {"lat": 18.6018421, "lng": 73.7814399}, "grid_x": 3, "grid_y": 2, "snap_result_types": ["route"], "snap_result_place_id": "ChIJjxVyQxC5wjsRnvzeZmihCOQ"}, {"raw_location": {"lat": 18.60203329315223, "lng": 73.79374611111112}, "snapped_location": {"lat": 18.6022049, "lng": 73.7937038}, "grid_x": 4, "grid_y": 2, "snap_result_types": ["route"], "snap_result_place_id": "ChIJ91KIdR25wjsREOaHxhrzSjY"}, {"raw_location": {"lat": 18.60203329315223, "lng": 73.80589888888889}, "snapped_location": {"lat": 18.6016723, "lng": 73.806461}, "grid_x": 5, "grid_y": 2, "snap_result_types": ["route"], "snap_result_place_id": "ChIJM8kmX--4wjsRgLH814ImPfY"}, {"raw_location": {"lat": 18.60203329315223, "lng": 73.81805166666668}, "snapped_location": {"lat": 18.6017088, "lng": 73.8173862}, "grid_x": 6, "grid_y": 2, "snap_result_types": ["route"], "snap_result_place_id": "ChIJofs8pOy4wjsRughinTHMaco"}, {"raw_location": {"lat": 18.60203329315223, "lng": 73.83020444444445}, "snapped_location": {"lat": 18.6018658, "lng": 73.83037750000001}, "grid_x": 7, "grid_y": 2, "snap_result_types": ["route"], "snap_result_place_id": "ChIJ871E_5m4wjsRfK09YTgAacs"}, {"raw_location": {"lat": 18.60203329315223, "lng": 73.84235722222223}, "snapped_location": {"lat": 18.6020889, "lng": 73.84323789999999}, "grid_x": 8, "grid_y": 2, "snap_result_types": ["route"], "snap_result_place_id": "ChIJW5gilmHHwjsRhhOntUbR4d4"}, {"raw_location": {"lat": 18.60203329315223, "lng": 73.85451}, "snapped_location": {"lat": 18.6010336, "lng": 73.8543381}, "grid_x": 9, "grid_y": 2, "snap_result_types": ["route"], "snap_result_place_id": "ChIJ_5jgcGjHwjsRImMwXtzBwWA"}, {"raw_location": {"lat": 18.60203329315223, "lng": 73.86666277777778}, "snapped_location": {"lat": 18.6019618, "lng": 73.8665658}, "grid_x": 10, "grid_y": 2, "snap_result_types": ["route"], "snap_result_place_id": "ChIJzTiwPBXHwjsRKqZUAiFybnc"}, {"raw_location": {"lat": 18.60203329315223, "lng": 73.87881555555556}, "snapped_location": {"lat": 18.6013317, "lng": 73.87781890000001}, "grid_x": 11, "grid_y": 2, "snap_result_types": ["route"], "snap_result_place_id": "ChIJ2eiUpiLHwjsRZI171qR7FuI"}, {"raw_location": {"lat": 18.60203329315223, "lng": 73.89096833333333}, "snapped_location": {"lat": 18.60203329315223, "lng": 73.89096833333333}, "grid_x": 12, "grid_y": 2, "snap_result_types": null, "snap_result_place_id": null}, {"raw_location": {"lat": 18.60203329315223, "lng": 73.90312111111112}, "snapped_location": {"lat": 18.6020888, "lng": 73.9036635}, "grid_x": 13, "grid_y": 2, "snap_result_types": ["route"], "snap_result_place_id": "ChIJHc-AYsLGwjsRZO2YmTr5QVQ"}, {"raw_location": {"lat": 18.60203329315223, "lng": 73.91527388888889}, "snapped_location": {"lat": 18.601871, "lng": 73.9151349}, "grid_x": 14, "grid_y": 2, "snap_result_types": ["route"], "snap_result_place_id": "ChIJ12qls7_GwjsRRkIVsxLo59g"}, {"raw_location": {"lat": 18.60203329315223, "lng": 73.92742666666668}, "snapped_location": {"lat": 18.6018898, "lng": 73.9276553}, "grid_x": 15, "grid_y": 2, "snap_result_types": ["route"], "snap_result_place_id": "ChIJZ1KYrqPGwjsRSGfwIjF05Ro"}, {"raw_location": {"lat": 18.60203329315223, "lng": 73.93957944444445}, "snapped_location": {"lat": 18.6006854, "lng": 73.93845739999999}, "grid_x": 16, "grid_y": 2, "snap_result_types": ["route"], "snap_result_place_id": "ChIJi1RueR7EwjsRLlpKBLTzdp0"}, {"raw_location": {"lat": 18.60203329315223, "lng": 73.95173222222223}, "snapped_location": {"lat": 18.6014714, "lng": 73.9522214}, "grid_x": 17, "grid_y": 2, "snap_result_types": ["route"], "snap_result_place_id": "ChIJjd59ShHEwjsRwjr24_vuFzY"}, {"raw_location": {"lat": 18.60203329315223, "lng": 73.963885}, "snapped_location": {"lat": 18.6020564, "lng": 73.96376730000001}, "grid_x": 18, "grid_y": 2, "snap_result_types": ["route"], "snap_result_place_id": "ChIJN58Pc2zEwjsRSC6_NZYayyQ"}, {"raw_location": {"lat": 18.59050996555905, "lng": 73.745135}, "snapped_location": {"lat": 18.5909686, "lng": 73.745575}, "grid_x": 0, "grid_y": 3, "snap_result_types": ["route"], "snap_result_place_id": "ChIJSdTVtt-7wjsR9lWP9d0Gc6s"}, {"raw_location": {"lat": 18.59050996555905, "lng": 73.75728777777778}, "snapped_location": {"lat": 18.5904935, "lng": 73.7575688}, "grid_x": 1, "grid_y": 3, "snap_result_types": ["route"], "snap_result_place_id": "ChIJadKbj2e5wjsRnvi3VCIK9r0"}, {"raw_location": {"lat": 18.59050996555905, "lng": 73.76944055555556}, "snapped_location": {"lat": 18.5901495, "lng": 73.7706302}, "grid_x": 2, "grid_y": 3, "snap_result_types": ["route"], "snap_result_place_id": "ChIJx4aFDUC5wjsRJs9gmyr5qoA"}, {"raw_location": {"lat": 18.59050996555905, "lng": 73.78159333333333}, "snapped_location": {"lat": 18.5902759, "lng": 73.7819244}, "grid_x": 3, "grid_y": 3, "snap_result_types": ["route"], "snap_result_place_id": "ChIJARQuIz25wjsR5rhcwLefoiQ"}, {"raw_location": {"lat": 18.59050996555905, "lng": 73.79374611111112}, "snapped_location": {"lat": 18.5900275, "lng": 73.7942092}, "grid_x": 4, "grid_y": 3, "snap_result_types": ["route"], "snap_result_place_id": "ChIJ5w0ehSC5wjsReo4rOAhSY30"}, {"raw_location": {"lat": 18.59050996555905, "lng": 73.80589888888889}, "snapped_location": {"lat": 18.5906098, "lng": 73.8038222}, "grid_x": 5, "grid_y": 3, "snap_result_types": ["route"], "snap_result_place_id": "ChIJvd3H_9y4wjsR4iOuYbnxZBk"}, {"raw_location": {"lat": 18.59050996555905, "lng": 73.81805166666668}, "snapped_location": {"lat": 18.5912392, "lng": 73.81876609999999}, "grid_x": 6, "grid_y": 3, "snap_result_types": ["route"], "snap_result_place_id": "ChIJ_axeXr-4wjsRJL8k56rJi_A"}, {"raw_location": {"lat": 18.59050996555905, "lng": 73.83020444444445}, "snapped_location": {"lat": 18.5900407, "lng": 73.8309792}, "grid_x": 7, "grid_y": 3, "snap_result_types": ["route"], "snap_result_place_id": "ChIJy8kGu6S4wjsRtqkUXNMF3m4"}, {"raw_location": {"lat": 18.59050996555905, "lng": 73.84235722222223}, "snapped_location": {"lat": 18.5906725, "lng": 73.8423066}, "grid_x": 8, "grid_y": 3, "snap_result_types": ["route"], "snap_result_place_id": "ChIJq9SNo1jHwjsRQhcWJEncnTA"}, {"raw_location": {"lat": 18.59050996555905, "lng": 73.85451}, "snapped_location": {"lat": 18.5894591, "lng": 73.8551514}, "grid_x": 9, "grid_y": 3, "snap_result_types": ["route"], "snap_result_place_id": "ChIJeY4LJUXHwjsRxK8bf_bgyyI"}, {"raw_location": {"lat": 18.59050996555905, "lng": 73.86666277777778}, "snapped_location": {"lat": 18.5913843, "lng": 73.8643489}, "grid_x": 10, "grid_y": 3, "snap_result_types": ["route"], "snap_result_place_id": "ChIJK91bcUfHwjsRdnqAOubcaJA"}, {"raw_location": {"lat": 18.59050996555905, "lng": 73.87881555555556}, "snapped_location": {"lat": 18.58995, "lng": 73.8793503}, "grid_x": 11, "grid_y": 3, "snap_result_types": ["route"], "snap_result_place_id": "ChIJfYkveyXHwjsRXqvt-GoTzEs"}, {"raw_location": {"lat": 18.59050996555905, "lng": 73.89096833333333}, "snapped_location": {"lat": 18.5905308, "lng": 73.8904822}, "grid_x": 12, "grid_y": 3, "snap_result_types": ["route"], "snap_result_place_id": "ChIJHdAeINjGwjsRuv1sG5PlQCY"}, {"raw_location": {"lat": 18.59050996555905, "lng": 73.90312111111112}, "snapped_location": {"lat": 18.5900673, "lng": 73.903105}, "grid_x": 13, "grid_y": 3, "snap_result_types": ["route"], "snap_result_place_id": "ChIJq_wMos_GwjsR5ibsp5TuATI"}, {"raw_location": {"lat": 18.59050996555905, "lng": 73.91527388888889}, "snapped_location": {"lat": 18.5912735, "lng": 73.9162928}, "grid_x": 14, "grid_y": 3, "snap_result_types": ["route"], "snap_result_place_id": "ChIJUyZLE7fGwjsRLAEhwrA_dIU"}, {"raw_location": {"lat": 18.59050996555905, "lng": 73.92742666666668}, "snapped_location": {"lat": 18.5908315, "lng": 73.92738659999999}, "grid_x": 15, "grid_y": 3, "snap_result_types": ["route"], "snap_result_place_id": "ChIJmStrAK_GwjsRpDGuQQIhS9s"}, {"raw_location": {"lat": 18.59050996555905, "lng": 73.93957944444445}, "snapped_location": {"lat": 18.5906721, "lng": 73.9397048}, "grid_x": 16, "grid_y": 3, "snap_result_types": ["route"], "snap_result_place_id": "ChIJEfXGtwPEwjsRvFIbT29HTmo"}, {"raw_location": {"lat": 18.59050996555905, "lng": 73.95173222222223}, "snapped_location": {"lat": 18.5905395, "lng": 73.9518399}, "grid_x": 17, "grid_y": 3, "snap_result_types": ["route"], "snap_result_place_id": "ChIJvSbWyA7EwjsRmPIdPzopHK0"}, {"raw_location": {"lat": 18.59050996555905, "lng": 73.963885}, "snapped_location": {"lat": 18.5896804, "lng": 73.96360969999999}, "grid_x": 18, "grid_y": 3, "snap_result_types": ["route"], "snap_result_place_id": "ChIJyQ4paXTEwjsROi1-8QTGr1Y"}, {"raw_location": {"lat": 18.578986637965876, "lng": 73.745135}, "snapped_location": {"lat": 18.578663, "lng": 73.74360279999999}, "grid_x": 0, "grid_y": 4, "snap_result_types": ["route"], "snap_result_place_id": "ChIJT3r7PuO7wjsR8LmqaVYvDOg"}, {"raw_location": {"lat": 18.578986637965876, "lng": 73.75728777777778}, "snapped_location": {"lat": 18.5788523, "lng": 73.7571376}, "grid_x": 1, "grid_y": 4, "snap_result_types": ["route"], "snap_result_place_id": "ChIJIRGXglq5wjsRbEogWGw6VnQ"}, {"raw_location": {"lat": 18.578986637965876, "lng": 73.76944055555556}, "snapped_location": {"lat": 18.5789077, "lng": 73.76948240000002}, "grid_x": 2, "grid_y": 4, "snap_result_types": ["route"], "snap_result_place_id": "ChIJxZC2b0i5wjsRmi7JESZJftc"}, {"raw_location": {"lat": 18.578986637965876, "lng": 73.78159333333333}, "snapped_location": {"lat": 18.5793348, "lng": 73.7822884}, "grid_x": 3, "grid_y": 4, "snap_result_types": ["route"], "snap_result_place_id": "ChIJt3X9GDC5wjsRWP9EM1CbY1c"}, {"raw_location": {"lat": 18.578986637965876, "lng": 73.79374611111112}, "snapped_location": {"lat": 18.5790104, "lng": 73.79318599999999}, "grid_x": 4, "grid_y": 4, "snap_result_types": ["route"], "snap_result_place_id": "ChIJ3wErTCi5wjsR9hmcxg9qV5o"}, {"raw_location": {"lat": 18.578986637965876, "lng": 73.80589888888889}, "snapped_location": {"lat": 18.5789261, "lng": 73.8058475}, "grid_x": 5, "grid_y": 4, "snap_result_types": ["route"], "snap_result_place_id": "ChIJw25dw9G4wjsROHiXya4rpao"}, {"raw_location": {"lat": 18.578986637965876, "lng": 73.81805166666668}, "snapped_location": {"lat": 18.5789819, "lng": 73.8180823}, "grid_x": 6, "grid_y": 4, "snap_result_types": ["route"], "snap_result_place_id": "ChIJoUqb_cm4wjsRrnoav_unnVQ"}, {"raw_location": {"lat": 18.578986637965876, "lng": 73.83020444444445}, "snapped_location": {"lat": 18.5791901, "lng": 73.8299868}, "grid_x": 7, "grid_y": 4, "snap_result_types": ["route"], "snap_result_place_id": "ChIJjYwIAbK4wjsRktS_yLueokA"}, {"raw_location": {"lat": 18.578986637965876, "lng": 73.84235722222223}, "snapped_location": {"lat": 18.579362, "lng": 73.84158959999999}, "grid_x": 8, "grid_y": 4, "snap_result_types": ["route"], "snap_result_place_id": "ChIJpVUF9VXHwjsRxFw2eySzHFw"}, {"raw_location": {"lat": 18.578986637965876, "lng": 73.85451}, "snapped_location": {"lat": 18.5787103, "lng": 73.8529772}, "grid_x": 9, "grid_y": 4, "snap_result_types": ["route"], "snap_result_place_id": "ChIJpSMqfVLHwjsRAuxqAkbbHOc"}, {"raw_location": {"lat": 18.578986637965876, "lng": 73.86666277777778}, "snapped_location": {"lat": 18.5779851, "lng": 73.8671098}, "grid_x": 10, "grid_y": 4, "snap_result_types": ["route"], "snap_result_place_id": "ChIJQ7U-RzXHwjsRoNl5l_jDzL8"}, {"raw_location": {"lat": 18.578986637965876, "lng": 73.87881555555556}, "snapped_location": {"lat": 18.5791233, "lng": 73.88077009999999}, "grid_x": 11, "grid_y": 4, "snap_result_types": ["route"], "snap_result_place_id": "ChIJ-yho09LAwjsRmkV4Nkbnhdg"}, {"raw_location": {"lat": 18.578986637965876, "lng": 73.89096833333333}, "snapped_location": {"lat": 18.5790335, "lng": 73.8904853}, "grid_x": 12, "grid_y": 4, "snap_result_types": ["route"], "snap_result_place_id": "ChIJxR3zNdXGwjsROISJ8MSjILg"}, {"raw_location": {"lat": 18.578986637965876, "lng": 73.90312111111112}, "snapped_location": {"lat": 18.5791379, "lng": 73.9036958}, "grid_x": 13, "grid_y": 4, "snap_result_types": ["route"], "snap_result_place_id": "ChIJF553JzPBwjsRuKdiatQrhEs"}, {"raw_location": {"lat": 18.578986637965876, "lng": 73.91527388888889}, "snapped_location": {"lat": 18.5789606, "lng": 73.9162278}, "grid_x": 14, "grid_y": 4, "snap_result_types": ["route"], "snap_result_place_id": "ChIJx2cwG0vBwjsRLi7aQ5YNBcc"}, {"raw_location": {"lat": 18.578986637965876, "lng": 73.92742666666668}, "snapped_location": {"lat": 18.5776259, "lng": 73.9290772}, "grid_x": 15, "grid_y": 4, "snap_result_types": ["route"], "snap_result_place_id": "ChIJTX8dxFPBwjsRVFlzr0GCpFA"}, {"raw_location": {"lat": 18.578986637965876, "lng": 73.93957944444445}, "snapped_location": {"lat": 18.5795367, "lng": 73.9396908}, "grid_x": 16, "grid_y": 4, "snap_result_types": ["route"], "snap_result_place_id": "ChIJJVZ_5f7DwjsRjGuDN1mLQcA"}, {"raw_location": {"lat": 18.578986637965876, "lng": 73.95173222222223}, "snapped_location": {"lat": 18.5786666, "lng": 73.9519657}, "grid_x": 17, "grid_y": 4, "snap_result_types": ["route"], "snap_result_place_id": "ChIJf835yPbDwjsRVpB5VSx6cOM"}, {"raw_location": {"lat": 18.578986637965876, "lng": 73.963885}, "snapped_location": {"lat": 18.5787561, "lng": 73.96336529999999}, "grid_x": 18, "grid_y": 4, "snap_result_types": ["route"], "snap_result_place_id": "ChIJfTn8sI3DwjsRbCI2-bxxWp8"}, {"raw_location": {"lat": 18.567463310372702, "lng": 73.745135}, "snapped_location": {"lat": 18.5680393, "lng": 73.74482909999999}, "grid_x": 0, "grid_y": 5, "snap_result_types": ["route"], "snap_result_place_id": "ChIJhRDXCf-7wjsRooHAATynPic"}, {"raw_location": {"lat": 18.567463310372702, "lng": 73.75728777777778}, "snapped_location": {"lat": 18.5682368, "lng": 73.7584814}, "grid_x": 1, "grid_y": 5, "snap_result_types": ["route"], "snap_result_place_id": "ChIJ3SYoulK5wjsRwP6n9_j_IUc"}, {"raw_location": {"lat": 18.567463310372702, "lng": 73.76944055555556}, "snapped_location": {"lat": 18.5676327, "lng": 73.76919079999999}, "grid_x": 2, "grid_y": 5, "snap_result_types": ["route"], "snap_result_place_id": "ChIJfXQ-MLW-wjsRqvcAj4MzVBE"}, {"raw_location": {"lat": 18.567463310372702, "lng": 73.78159333333333}, "snapped_location": {"lat": 18.5676178, "lng": 73.7817281}, "grid_x": 3, "grid_y": 5, "snap_result_types": ["route"], "snap_result_place_id": "ChIJeabsbM2-wjsRgjZfbcNbsC0"}, {"raw_location": {"lat": 18.567463310372702, "lng": 73.79374611111112}, "snapped_location": {"lat": 18.567557, "lng": 73.7935159}, "grid_x": 4, "grid_y": 5, "snap_result_types": ["route"], "snap_result_place_id": "ChIJ6zhpddW-wjsRpNEpwFc4Das"}, {"raw_location": {"lat": 18.567463310372702, "lng": 73.80589888888889}, "snapped_location": {"lat": 18.5666056, "lng": 73.8059521}, "grid_x": 5, "grid_y": 5, "snap_result_types": ["route"], "snap_result_place_id": "ChIJLQsy-y2_wjsR_CSIQefnWcM"}, {"raw_location": {"lat": 18.567463310372702, "lng": 73.81805166666668}, "snapped_location": {"lat": 18.5673058, "lng": 73.8175907}, "grid_x": 6, "grid_y": 5, "snap_result_types": ["route"], "snap_result_place_id": "ChIJQ5w75TW_wjsR3i0C6kpoNxY"}, {"raw_location": {"lat": 18.567463310372702, "lng": 73.83020444444445}, "snapped_location": {"lat": 18.5675618, "lng": 73.8305259}, "grid_x": 7, "grid_y": 5, "snap_result_types": ["route"], "snap_result_place_id": "ChIJLRE5_1G_wjsRxNp5S8OhaAU"}, {"raw_location": {"lat": 18.567463310372702, "lng": 73.84235722222223}, "snapped_location": {"lat": 18.5685283, "lng": 73.8410873}, "grid_x": 8, "grid_y": 5, "snap_result_types": ["route"], "snap_result_place_id": "ChIJoUflCFa_wjsRZDufLmG9DmE"}, {"raw_location": {"lat": 18.567463310372702, "lng": 73.85451}, "snapped_location": {"lat": 18.5669605, "lng": 73.85459089999999}, "grid_x": 9, "grid_y": 5, "snap_result_types": ["route"], "snap_result_place_id": "ChIJV1vwMrDAwjsRgKM2oz9X4CU"}, {"raw_location": {"lat": 18.567463310372702, "lng": 73.86666277777778}, "snapped_location": {"lat": 18.5696393, "lng": 73.86455029999999}, "grid_x": 10, "grid_y": 5, "snap_result_types": ["route"], "snap_result_place_id": "ChIJa2OC38nAwjsRDGujGnBHLxo"}, {"raw_location": {"lat": 18.567463310372702, "lng": 73.87881555555556}, "snapped_location": {"lat": 18.5676976, "lng": 73.87818279999999}, "grid_x": 11, "grid_y": 5, "snap_result_types": ["route"], "snap_result_place_id": "ChIJd9jYFdDAwjsRtL9SddD0SG0"}, {"raw_location": {"lat": 18.567463310372702, "lng": 73.89096833333333}, "snapped_location": {"lat": 18.5663536, "lng": 73.8912119}, "grid_x": 12, "grid_y": 5, "snap_result_types": ["route"], "snap_result_place_id": "ChIJHc1SzyfBwjsRHJBzWnF73iE"}, {"raw_location": {"lat": 18.567463310372702, "lng": 73.90312111111112}, "snapped_location": {"lat": 18.5697492, "lng": 73.9026416}, "grid_x": 13, "grid_y": 5, "snap_result_types": ["route"], "snap_result_place_id": "ChIJ_750ajDBwjsR6hIlG-plsng"}, {"raw_location": {"lat": 18.567463310372702, "lng": 73.91527388888889}, "snapped_location": {"lat": 18.5675788, "lng": 73.915649}, "grid_x": 14, "grid_y": 5, "snap_result_types": ["route"], "snap_result_place_id": "ChIJPUP_UkbBwjsR7vmXFK8i0kM"}, {"raw_location": {"lat": 18.567463310372702, "lng": 73.92742666666668}, "snapped_location": {"lat": 18.568315, "lng": 73.92702229999999}, "grid_x": 15, "grid_y": 5, "snap_result_types": ["route"], "snap_result_place_id": "ChIJt6MqVlrBwjsREpogm8FxOn0"}, {"raw_location": {"lat": 18.567463310372702, "lng": 73.93957944444445}, "snapped_location": {"lat": 18.5662732, "lng": 73.93944019999999}, "grid_x": 16, "grid_y": 5, "snap_result_types": ["route"], "snap_result_place_id": "ChIJy7_01-PDwjsR7BvfwQj18N8"}, {"raw_location": {"lat": 18.567463310372702, "lng": 73.95173222222223}, "snapped_location": {"lat": 18.5679936, "lng": 73.9513987}, "grid_x": 17, "grid_y": 5, "snap_result_types": ["route"], "snap_result_place_id": "ChIJlz5Tw-7DwjsRrLBihNwCXB4"}, {"raw_location": {"lat": 18.567463310372702, "lng": 73.963885}, "snapped_location": {"lat": 18.5673198, "lng": 73.9628261}, "grid_x": 18, "grid_y": 5, "snap_result_types": ["route"], "snap_result_place_id": "ChIJQ9h7e5TDwjsRys4WrUB2YPY"}, {"raw_location": {"lat": 18.555939982779527, "lng": 73.745135}, "snapped_location": {"lat": 18.5569496, "lng": 73.745279}, "grid_x": 0, "grid_y": 6, "snap_result_types": ["route"], "snap_result_place_id": "ChIJXe1rHAO8wjsREIzxfGe2ER4"}, {"raw_location": {"lat": 18.555939982779527, "lng": 73.75728777777778}, "snapped_location": {"lat": 18.5562318, "lng": 73.7588234}, "grid_x": 1, "grid_y": 6, "snap_result_types": ["route"], "snap_result_place_id": "ChIJ-R49_K--wjsRhKnWlRgo1CQ"}, {"raw_location": {"lat": 18.555939982779527, "lng": 73.76944055555556}, "snapped_location": {"lat": 18.5563455, "lng": 73.7701419}, "grid_x": 2, "grid_y": 6, "snap_result_types": ["route"], "snap_result_place_id": "ChIJXwRTHri-wjsRwExo3so96Q8"}, {"raw_location": {"lat": 18.555939982779527, "lng": 73.78159333333333}, "snapped_location": {"lat": 18.5554705, "lng": 73.7816856}, "grid_x": 3, "grid_y": 6, "snap_result_types": ["route"], "snap_result_place_id": "ChIJq-d6IsW-wjsRBuV8foYOlI8"}, {"raw_location": {"lat": 18.555939982779527, "lng": 73.79374611111112}, "snapped_location": {"lat": 18.5562416, "lng": 73.79365299999999}, "grid_x": 4, "grid_y": 6, "snap_result_types": ["route"], "snap_result_place_id": "ChIJXTQhXti-wjsR8LQuN7VGH20"}, {"raw_location": {"lat": 18.555939982779527, "lng": 73.80589888888889}, "snapped_location": {"lat": 18.5559918, "lng": 73.8059341}, "grid_x": 5, "grid_y": 6, "snap_result_types": ["route"], "snap_result_place_id": "ChIJRd6tyCS_wjsR1AaCOauC6MM"}, {"raw_location": {"lat": 18.555939982779527, "lng": 73.81805166666668}, "snapped_location": {"lat": 18.555809, "lng": 73.8182777}, "grid_x": 6, "grid_y": 6, "snap_result_types": ["route"], "snap_result_place_id": "ChIJ21O4qTi_wjsRfP4Uo9VPsvA"}, {"raw_location": {"lat": 18.555939982779527, "lng": 73.83020444444445}, "snapped_location": {"lat": 18.555485, "lng": 73.8289241}, "grid_x": 7, "grid_y": 6, "snap_result_types": ["route"], "snap_result_place_id": "ChIJ_Y4AREO_wjsROCvbPwqh3O8"}, {"raw_location": {"lat": 18.555939982779527, "lng": 73.84235722222223}, "snapped_location": {"lat": 18.5560999, "lng": 73.8424994}, "grid_x": 8, "grid_y": 6, "snap_result_types": ["route"], "snap_result_place_id": "ChIJ93P2oqDAwjsR6oWyHW6haNA"}, {"raw_location": {"lat": 18.555939982779527, "lng": 73.85451}, "snapped_location": {"lat": 18.5556301, "lng": 73.8556832}, "grid_x": 9, "grid_y": 6, "snap_result_types": ["route"], "snap_result_place_id": "ChIJvYmEHb3AwjsRIiq3WKb4MxA"}, {"raw_location": {"lat": 18.555939982779527, "lng": 73.86666277777778}, "snapped_location": {"lat": 18.5535197, "lng": 73.8670145}, "grid_x": 10, "grid_y": 6, "snap_result_types": ["route"], "snap_result_place_id": "ChIJeUjJIMDAwjsRarJ295ZmNVI"}, {"raw_location": {"lat": 18.555939982779527, "lng": 73.87881555555556}, "snapped_location": {"lat": 18.5559693, "lng": 73.8788795}, "grid_x": 11, "grid_y": 6, "snap_result_types": ["route"], "snap_result_place_id": "ChIJH_NXad3AwjsRBl1qUqmcjy8"}, {"raw_location": {"lat": 18.555939982779527, "lng": 73.89096833333333}, "snapped_location": {"lat": 18.5566313, "lng": 73.8907895}, "grid_x": 12, "grid_y": 6, "snap_result_types": ["route"], "snap_result_place_id": "ChIJM6tlISDBwjsRVPgMTiA-83U"}, {"raw_location": {"lat": 18.555939982779527, "lng": 73.90312111111112}, "snapped_location": {"lat": 18.5545568, "lng": 73.90375039999999}, "grid_x": 13, "grid_y": 6, "snap_result_types": ["route"], "snap_result_place_id": "ChIJIyyWrBfBwjsRBFh8ouvNWMo"}, {"raw_location": {"lat": 18.555939982779527, "lng": 73.91527388888889}, "snapped_location": {"lat": 18.5562325, "lng": 73.9147989}, "grid_x": 14, "grid_y": 6, "snap_result_types": ["route"], "snap_result_place_id": "ChIJLUyK7WrBwjsRwmNv8Of7fXU"}, {"raw_location": {"lat": 18.555939982779527, "lng": 73.92742666666668}, "snapped_location": {"lat": 18.5559578, "lng": 73.9274659}, "grid_x": 15, "grid_y": 6, "snap_result_types": ["route"], "snap_result_place_id": "ChIJHVz0_mbBwjsRYoAP9N-SqCA"}, {"raw_location": {"lat": 18.555939982779527, "lng": 73.93957944444445}, "snapped_location": {"lat": 18.5552313, "lng": 73.9396744}, "grid_x": 16, "grid_y": 6, "snap_result_types": ["route"], "snap_result_place_id": "ChIJI6fU2t7DwjsREnE6YnDYVZM"}, {"raw_location": {"lat": 18.555939982779527, "lng": 73.95173222222223}, "snapped_location": {"lat": 18.5562749, "lng": 73.9510571}, "grid_x": 17, "grid_y": 6, "snap_result_types": ["route"], "snap_result_place_id": "ChIJX-ybnMPDwjsRHgWMLOV_WWE"}, {"raw_location": {"lat": 18.555939982779527, "lng": 73.963885}, "snapped_location": {"lat": 18.5556413, "lng": 73.96430099999999}, "grid_x": 18, "grid_y": 6, "snap_result_types": ["route"], "snap_result_place_id": "ChIJ80Re6LvDwjsRcklLqi_8TlI"}, {"raw_location": {"lat": 18.54441665518635, "lng": 73.745135}, "snapped_location": {"lat": 18.5451851, "lng": 73.745267}, "grid_x": 0, "grid_y": 7, "snap_result_types": ["route"], "snap_result_place_id": "ChIJsfEalx-8wjsRvFmliiT32kU"}, {"raw_location": {"lat": 18.54441665518635, "lng": 73.75728777777778}, "snapped_location": {"lat": 18.54479, "lng": 73.75783779999999}, "grid_x": 1, "grid_y": 7, "snap_result_types": ["route"], "snap_result_place_id": "ChIJM_m-_pe-wjsRpKJaVPKxC9c"}, {"raw_location": {"lat": 18.54441665518635, "lng": 73.76944055555556}, "snapped_location": {"lat": 18.5443882, "lng": 73.7695615}, "grid_x": 2, "grid_y": 7, "snap_result_types": ["route"], "snap_result_place_id": "ChIJQ0PPaJW-wjsR_BgNobYlPDo"}, {"raw_location": {"lat": 18.54441665518635, "lng": 73.78159333333333}, "snapped_location": {"lat": 18.544654, "lng": 73.7815938}, "grid_x": 3, "grid_y": 7, "snap_result_types": ["route"], "snap_result_place_id": "ChIJjwPJQei-wjsRcLQN18Go-9M"}, {"raw_location": {"lat": 18.54441665518635, "lng": 73.79374611111112}, "snapped_location": {"lat": 18.5442934, "lng": 73.79406399999999}, "grid_x": 4, "grid_y": 7, "snap_result_types": ["route"], "snap_result_place_id": "ChIJs9Tf1eG-wjsRuq8wrz6efjc"}, {"raw_location": {"lat": 18.54441665518635, "lng": 73.80589888888889}, "snapped_location": {"lat": 18.5441489, "lng": 73.8058475}, "grid_x": 5, "grid_y": 7, "snap_result_types": ["route"], "snap_result_place_id": "ChIJMwh-3Rm_wjsR3rMepvPsO7M"}, {"raw_location": {"lat": 18.54441665518635, "lng": 73.81805166666668}, "snapped_location": {"lat": 18.544261, "lng": 73.8186595}, "grid_x": 6, "grid_y": 7, "snap_result_types": ["route"], "snap_result_place_id": "ChIJdQvqsxS_wjsRujhDxtKtmns"}, {"raw_location": {"lat": 18.54441665518635, "lng": 73.83020444444445}, "snapped_location": {"lat": 18.5451465, "lng": 73.828475}, "grid_x": 7, "grid_y": 7, "snap_result_types": ["route"], "snap_result_place_id": "ChIJfe30xmi_wjsRJVvgvcup2Rw"}, {"raw_location": {"lat": 18.54441665518635, "lng": 73.84235722222223}, "snapped_location": {"lat": 18.5455924, "lng": 73.8433598}, "grid_x": 8, "grid_y": 7, "snap_result_types": ["route"], "snap_result_place_id": "ChIJm7pX553AwjsRfiqA1s17rZ0"}, {"raw_location": {"lat": 18.54441665518635, "lng": 73.85451}, "snapped_location": {"lat": 18.5450163, "lng": 73.8522643}, "grid_x": 9, "grid_y": 7, "snap_result_types": ["route"], "snap_result_place_id": "ChIJ3wUBQprAwjsRigkRQ0zyc1w"}, {"raw_location": {"lat": 18.54441665518635, "lng": 73.86666277777778}, "snapped_location": {"lat": 18.545382, "lng": 73.86625409999999}, "grid_x": 10, "grid_y": 7, "snap_result_types": ["route"], "snap_result_place_id": "ChIJu_5N3-zAwjsRDMioz6BTVUQ"}, {"raw_location": {"lat": 18.54441665518635, "lng": 73.87881555555556}, "snapped_location": {"lat": 18.5437696, "lng": 73.8790199}, "grid_x": 11, "grid_y": 7, "snap_result_types": ["route"], "snap_result_place_id": "ChIJSwcGOuXAwjsRRvBs8U43wZc"}, {"raw_location": {"lat": 18.54441665518635, "lng": 73.89096833333333}, "snapped_location": {"lat": 18.546056, "lng": 73.88970119999999}, "grid_x": 12, "grid_y": 7, "snap_result_types": ["route"], "snap_result_place_id": "ChIJ4aJVbh3BwjsROgv7qS7Bna4"}, {"raw_location": {"lat": 18.54441665518635, "lng": 73.90312111111112}, "snapped_location": {"lat": 18.5444395, "lng": 73.903199}, "grid_x": 13, "grid_y": 7, "snap_result_types": ["route"], "snap_result_place_id": "ChIJLzlrzA_BwjsRYJxQmTsFvmY"}, {"raw_location": {"lat": 18.54441665518635, "lng": 73.91527388888889}, "snapped_location": {"lat": 18.5427243, "lng": 73.91545169999999}, "grid_x": 14, "grid_y": 7, "snap_result_types": ["route"], "snap_result_place_id": "ChIJtY1_WHLBwjsRCuSbbzkMcUQ"}, {"raw_location": {"lat": 18.54441665518635, "lng": 73.92742666666668}, "snapped_location": {"lat": 18.5439317, "lng": 73.9274033}, "grid_x": 15, "grid_y": 7, "snap_result_types": ["route"], "snap_result_place_id": "ChIJMe6dsnvBwjsRANtnZA_Tf-A"}, {"raw_location": {"lat": 18.54441665518635, "lng": 73.93957944444445}, "snapped_location": {"lat": 18.5438876, "lng": 73.9395461}, "grid_x": 16, "grid_y": 7, "snap_result_types": ["route"], "snap_result_place_id": "ChIJjSnSj9bDwjsR7HUj8ciXRgI"}, {"raw_location": {"lat": 18.54441665518635, "lng": 73.95173222222223}, "snapped_location": {"lat": 18.544312, "lng": 73.9484058}, "grid_x": 17, "grid_y": 7, "snap_result_types": ["route"], "snap_result_place_id": "ChIJJQGtDM7DwjsR2FlLyRWHaYY"}, {"raw_location": {"lat": 18.54441665518635, "lng": 73.963885}, "snapped_location": {"lat": 18.5452936, "lng": 73.9642631}, "grid_x": 18, "grid_y": 7, "snap_result_types": ["route"], "snap_result_place_id": "ChIJ8dpZr7bDwjsRSlvrLAYN7cs"}, {"raw_location": {"lat": 18.532893327593175, "lng": 73.745135}, "snapped_location": {"lat": 18.5310511, "lng": 73.7445642}, "grid_x": 0, "grid_y": 8, "snap_result_types": ["route"], "snap_result_place_id": "ChIJFV_thii8wjsRNlgub_qixnk"}, {"raw_location": {"lat": 18.532893327593175, "lng": 73.75728777777778}, "snapped_location": {"lat": 18.5326787, "lng": 73.7573104}, "grid_x": 1, "grid_y": 8, "snap_result_types": ["route"], "snap_result_place_id": "ChIJ89et0pq-wjsRXkf31i-ylAM"}, {"raw_location": {"lat": 18.532893327593175, "lng": 73.76944055555556}, "snapped_location": {"lat": 18.5315162, "lng": 73.7693544}, "grid_x": 2, "grid_y": 8, "snap_result_types": ["route"], "snap_result_place_id": "ChIJKVJcDo2-wjsRjLOMJlF1YSs"}, {"raw_location": {"lat": 18.532893327593175, "lng": 73.78159333333333}, "snapped_location": {"lat": 18.5326427, "lng": 73.7801684}, "grid_x": 3, "grid_y": 8, "snap_result_types": ["route"], "snap_result_place_id": "ChIJP1-sTPC-wjsRWOYjhgGCoMo"}, {"raw_location": {"lat": 18.532893327593175, "lng": 73.79374611111112}, "snapped_location": {"lat": 18.5329277, "lng": 73.7933843}, "grid_x": 4, "grid_y": 8, "snap_result_types": ["route"], "snap_result_place_id": "ChIJadygCv2-wjsR7lDnL1cD5qY"}, {"raw_location": {"lat": 18.532893327593175, "lng": 73.80589888888889}, "snapped_location": {"lat": 18.5331742, "lng": 73.8069901}, "grid_x": 5, "grid_y": 8, "snap_result_types": ["route"], "snap_result_place_id": "ChIJbW90swi_wjsRolOh1pgZnuY"}, {"raw_location": {"lat": 18.532893327593175, "lng": 73.81805166666668}, "snapped_location": {"lat": 18.534249, "lng": 73.8159931}, "grid_x": 6, "grid_y": 8, "snap_result_types": ["route"], "snap_result_place_id": "ChIJf3Ga-gy_wjsRDgZDm4eIqm4"}, {"raw_location": {"lat": 18.532893327593175, "lng": 73.83020444444445}, "snapped_location": {"lat": 18.5322948, "lng": 73.830107}, "grid_x": 7, "grid_y": 8, "snap_result_types": ["route"], "snap_result_place_id": "ChIJG31fX3e_wjsRbja5Rjuj6_U"}, {"raw_location": {"lat": 18.532893327593175, "lng": 73.84235722222223}, "snapped_location": {"lat": 18.5325969, "lng": 73.8422566}, "grid_x": 8, "grid_y": 8, "snap_result_types": ["route"], "snap_result_place_id": "ChIJwaHy24HAwjsRLmaSwGJRSvg"}, {"raw_location": {"lat": 18.532893327593175, "lng": 73.85451}, "snapped_location": {"lat": 18.5326328, "lng": 73.85398409999999}, "grid_x": 9, "grid_y": 8, "snap_result_types": ["route"], "snap_result_place_id": "ChIJT57agIjAwjsRVt5xzorZuVY"}, {"raw_location": {"lat": 18.532893327593175, "lng": 73.86666277777778}, "snapped_location": {"lat": 18.5313502, "lng": 73.86651979999999}, "grid_x": 10, "grid_y": 8, "snap_result_types": ["route"], "snap_result_place_id": "ChIJ22CDW_XAwjsRFGvhZhm8gdc"}, {"raw_location": {"lat": 18.532893327593175, "lng": 73.87881555555556}, "snapped_location": {"lat": 18.532891, "lng": 73.87890469999999}, "grid_x": 11, "grid_y": 8, "snap_result_types": ["route"], "snap_result_place_id": "ChIJc8fya_jAwjsR3iuGXVt_mWk"}, {"raw_location": {"lat": 18.532893327593175, "lng": 73.89096833333333}, "snapped_location": {"lat": 18.533234, "lng": 73.8912206}, "grid_x": 12, "grid_y": 8, "snap_result_types": ["route"], "snap_result_place_id": "ChIJCQPWcADBwjsR3rAPu1I29L8"}, {"raw_location": {"lat": 18.532893327593175, "lng": 73.90312111111112}, "snapped_location": {"lat": 18.5333728, "lng": 73.9025226}, "grid_x": 13, "grid_y": 8, "snap_result_types": ["route"], "snap_result_place_id": "ChIJex5qJAjBwjsRbN9WZU9wFCc"}, {"raw_location": {"lat": 18.532893327593175, "lng": 73.91527388888889}, "snapped_location": {"lat": 18.5333876, "lng": 73.91543159999999}, "grid_x": 14, "grid_y": 8, "snap_result_types": ["route"], "snap_result_place_id": "ChIJmxxJxJ_BwjsRdmwve56JrJo"}, {"raw_location": {"lat": 18.532893327593175, "lng": 73.92742666666668}, "snapped_location": {"lat": 18.5327728, "lng": 73.928563}, "grid_x": 15, "grid_y": 8, "snap_result_types": ["route"], "snap_result_place_id": "ChIJ3XpBtoPBwjsRtordtW8_QzU"}, {"raw_location": {"lat": 18.532893327593175, "lng": 73.93957944444445}, "snapped_location": {"lat": 18.5330911, "lng": 73.9397223}, "grid_x": 16, "grid_y": 8, "snap_result_types": ["route"], "snap_result_place_id": "ChIJmbRXtyvCwjsRCptF6eMDv_U"}, {"raw_location": {"lat": 18.532893327593175, "lng": 73.95173222222223}, "snapped_location": {"lat": 18.5328924, "lng": 73.95168939999999}, "grid_x": 17, "grid_y": 8, "snap_result_types": ["route"], "snap_result_place_id": "ChIJT6OZxDPCwjsRetrUQETKDxI"}, {"raw_location": {"lat": 18.532893327593175, "lng": 73.963885}, "snapped_location": {"lat": 18.5315243, "lng": 73.96402970000001}, "grid_x": 18, "grid_y": 8, "snap_result_types": ["route"], "snap_result_place_id": "ChIJKQY550jCwjsRSE1JcJ7TwHQ"}, {"raw_location": {"lat": 18.52137, "lng": 73.745135}, "snapped_location": {"lat": 18.5221761, "lng": 73.7460396}, "grid_x": 0, "grid_y": 9, "snap_result_types": ["route"], "snap_result_place_id": "ChIJF23B5iq8wjsR4E2pYiiTULs"}, {"raw_location": {"lat": 18.52137, "lng": 73.75728777777778}, "snapped_location": {"lat": 18.5207811, "lng": 73.7569142}, "grid_x": 1, "grid_y": 9, "snap_result_types": ["route"], "snap_result_place_id": "ChIJPYXIfn2-wjsR3Fn1oAPKts8"}, {"raw_location": {"lat": 18.52137, "lng": 73.76944055555556}, "snapped_location": {"lat": 18.52109, "lng": 73.7693264}, "grid_x": 2, "grid_y": 9, "snap_result_types": ["route"], "snap_result_place_id": "ChIJTasjOWC-wjsR_sX6YXbYOLo"}, {"raw_location": {"lat": 18.52137, "lng": 73.78159333333333}, "snapped_location": {"lat": 18.5221874, "lng": 73.7805755}, "grid_x": 3, "grid_y": 9, "snap_result_types": ["route"], "snap_result_place_id": "ChIJo0iFY1i-wjsRwASUjeCMCog"}, {"raw_location": {"lat": 18.52137, "lng": 73.79374611111112}, "snapped_location": {"lat": 18.5221263, "lng": 73.79438739999999}, "grid_x": 4, "grid_y": 9, "snap_result_types": ["route"], "snap_result_place_id": "ChIJUxWpw6q_wjsRaEqsJL74muU"}, {"raw_location": {"lat": 18.52137, "lng": 73.80589888888889}, "snapped_location": {"lat": 18.5205188, "lng": 73.80740329999999}, "grid_x": 5, "grid_y": 9, "snap_result_types": ["route"], "snap_result_place_id": "ChIJIaD1D6a_wjsRgqUpafS61ow"}, {"raw_location": {"lat": 18.52137, "lng": 73.81805166666668}, "snapped_location": {"lat": 18.5220357, "lng": 73.8187104}, "grid_x": 6, "grid_y": 9, "snap_result_types": ["route"], "snap_result_place_id": "ChIJq77mRJ-_wjsRBtBuLs1FwTc"}, {"raw_location": {"lat": 18.52137, "lng": 73.83020444444445}, "snapped_location": {"lat": 18.5214945, "lng": 73.8302724}, "grid_x": 7, "grid_y": 9, "snap_result_types": ["route"], "snap_result_place_id": "ChIJ8bvzUJu_wjsRvO0adBetycM"}, {"raw_location": {"lat": 18.52137, "lng": 73.84235722222223}, "snapped_location": {"lat": 18.5215022, "lng": 73.8426899}, "grid_x": 8, "grid_y": 9, "snap_result_types": ["route"], "snap_result_place_id": "ChIJ_aajonjAwjsRyGhCQgsAigA"}, {"raw_location": {"lat": 18.52137, "lng": 73.85451}, "snapped_location": {"lat": 18.521626, "lng": 73.855031}, "grid_x": 9, "grid_y": 9, "snap_result_types": ["route"], "snap_result_place_id": "ChIJzWqsw2TAwjsRSrIQ2fZNCv8"}, {"raw_location": {"lat": 18.52137, "lng": 73.86666277777778}, "snapped_location": {"lat": 18.5214543, "lng": 73.86640609999999}, "grid_x": 10, "grid_y": 9, "snap_result_types": ["route"], "snap_result_place_id": "ChIJj4GNcV3AwjsRtIUONXTMUrg"}, {"raw_location": {"lat": 18.52137, "lng": 73.87881555555556}, "snapped_location": {"lat": 18.5217351, "lng": 73.8793688}, "grid_x": 11, "grid_y": 9, "snap_result_types": ["route"], "snap_result_place_id": "ChIJO4NwSFDAwjsR1p1oANgzkmg"}, {"raw_location": {"lat": 18.52137, "lng": 73.89096833333333}, "snapped_location": {"lat": 18.5208628, "lng": 73.8910238}, "grid_x": 12, "grid_y": 9, "snap_result_types": ["route"], "snap_result_place_id": "ChIJA-Z3m7LBwjsRvrkXz2tYDwk"}, {"raw_location": {"lat": 18.52137, "lng": 73.90312111111112}, "snapped_location": {"lat": 18.5222054, "lng": 73.90434619999999}, "grid_x": 13, "grid_y": 9, "snap_result_types": ["route"], "snap_result_place_id": "ChIJ_0aMLbvBwjsRgLrn4TPmFss"}, {"raw_location": {"lat": 18.52137, "lng": 73.91527388888889}, "snapped_location": {"lat": 18.5198151, "lng": 73.9153407}, "grid_x": 14, "grid_y": 9, "snap_result_types": ["route"], "snap_result_place_id": "ChIJtfAjWJbBwjsRmC7KjTbHpro"}, {"raw_location": {"lat": 18.52137, "lng": 73.92742666666668}, "snapped_location": {"lat": 18.5212214, "lng": 73.9266244}, "grid_x": 15, "grid_y": 9, "snap_result_types": ["route"], "snap_result_place_id": "ChIJ_X7OU47BwjsR9P403hliDpM"}, {"raw_location": {"lat": 18.52137, "lng": 73.93957944444445}, "snapped_location": {"lat": 18.5212461, "lng": 73.93857369999999}, "grid_x": 16, "grid_y": 9, "snap_result_types": ["route"], "snap_result_place_id": "ChIJFdK43ibCwjsREPzSXTK08tw"}, {"raw_location": {"lat": 18.52137, "lng": 73.95173222222223}, "snapped_location": {"lat": 18.5194808, "lng": 73.9502687}, "grid_x": 17, "grid_y": 9, "snap_result_types": ["route"], "snap_result_place_id": "ChIJYwE-8zzCwjsR9rEPtRFE47Y"}, {"raw_location": {"lat": 18.52137, "lng": 73.963885}, "snapped_location": {"lat": 18.5223846, "lng": 73.96427899999999}, "grid_x": 18, "grid_y": 9, "snap_result_types": ["route"], "snap_result_place_id": "ChIJjSPMtkbCwjsRho3NSAgqJAo"}, {"raw_location": {"lat": 18.509846672406827, "lng": 73.745135}, "snapped_location": {"lat": 18.5083356, "lng": 73.7454604}, "grid_x": 0, "grid_y": 10, "snap_result_types": ["route"], "snap_result_place_id": "ChIJ7boWPdi9wjsRhCskKAMU1Gs"}, {"raw_location": {"lat": 18.509846672406827, "lng": 73.75728777777778}, "snapped_location": {"lat": 18.5079564, "lng": 73.7565935}, "grid_x": 1, "grid_y": 10, "snap_result_types": ["route"], "snap_result_place_id": "ChIJL6cP-nC-wjsRthXy3qcXNco"}, {"raw_location": {"lat": 18.509846672406827, "lng": 73.76944055555556}, "snapped_location": {"lat": 18.5094928, "lng": 73.76945169999999}, "grid_x": 2, "grid_y": 10, "snap_result_types": ["route"], "snap_result_place_id": "ChIJaaxPaGi-wjsRgJnCE8Dw8gk"}, {"raw_location": {"lat": 18.509846672406827, "lng": 73.78159333333333}, "snapped_location": {"lat": 18.509892, "lng": 73.7815036}, "grid_x": 3, "grid_y": 10, "snap_result_types": ["route"], "snap_result_place_id": "ChIJ9SwzbUW-wjsR8lPoKog8fLw"}, {"raw_location": {"lat": 18.509846672406827, "lng": 73.79374611111112}, "snapped_location": {"lat": 18.5098477, "lng": 73.7935839}, "grid_x": 4, "grid_y": 10, "snap_result_types": ["route"], "snap_result_place_id": "ChIJGUA82Ey-wjsRlpMWVej0c8c"}, {"raw_location": {"lat": 18.509846672406827, "lng": 73.80589888888889}, "snapped_location": {"lat": 18.5099869, "lng": 73.8059421}, "grid_x": 5, "grid_y": 10, "snap_result_types": ["route"], "snap_result_place_id": "ChIJeYw5mrC_wjsRkKQsDZRzuZg"}, {"raw_location": {"lat": 18.509846672406827, "lng": 73.81805166666668}, "snapped_location": {"lat": 18.5095236, "lng": 73.8183229}, "grid_x": 6, "grid_y": 10, "snap_result_types": ["route"], "snap_result_place_id": "ChIJWyCt-L2_wjsRdksu1-60WCY"}, {"raw_location": {"lat": 18.509846672406827, "lng": 73.83020444444445}, "snapped_location": {"lat": 18.5102376, "lng": 73.8298308}, "grid_x": 7, "grid_y": 10, "snap_result_types": ["route"], "snap_result_place_id": "ChIJexC2-JG_wjsRdFSJJdsB6Wo"}, {"raw_location": {"lat": 18.509846672406827, "lng": 73.84235722222223}, "snapped_location": {"lat": 18.5094261, "lng": 73.84223349999999}, "grid_x": 8, "grid_y": 10, "snap_result_types": ["route"], "snap_result_place_id": "ChIJz-E3iXXAwjsRdiN9Cjfq6m0"}, {"raw_location": {"lat": 18.509846672406827, "lng": 73.85451}, "snapped_location": {"lat": 18.509602, "lng": 73.8545808}, "grid_x": 9, "grid_y": 10, "snap_result_types": ["route"], "snap_result_place_id": "ChIJd9sJnW3AwjsRhC_167OOqCE"}, {"raw_location": {"lat": 18.509846672406827, "lng": 73.86666277777778}, "snapped_location": {"lat": 18.5099016, "lng": 73.8663207}, "grid_x": 10, "grid_y": 10, "snap_result_types": ["route"], "snap_result_place_id": "ChIJl52bMEDAwjsRAkFU_fApGBY"}, {"raw_location": {"lat": 18.509846672406827, "lng": 73.87881555555556}, "snapped_location": {"lat": 18.509806, "lng": 73.8787585}, "grid_x": 11, "grid_y": 10, "snap_result_types": ["route"], "snap_result_place_id": "ChIJYyW1P0jAwjsRRLEIX3xxUg4"}, {"raw_location": {"lat": 18.509846672406827, "lng": 73.89096833333333}, "snapped_location": {"lat": 18.509974, "lng": 73.8897389}, "grid_x": 12, "grid_y": 10, "snap_result_types": ["route"], "snap_result_place_id": "ChIJk430qMrBwjsR7AQOt5WXecA"}, {"raw_location": {"lat": 18.509846672406827, "lng": 73.90312111111112}, "snapped_location": {"lat": 18.5098594, "lng": 73.9027895}, "grid_x": 13, "grid_y": 10, "snap_result_types": ["route"], "snap_result_place_id": "ChIJpx7jkMfBwjsRCpepa2bC_zI"}, {"raw_location": {"lat": 18.509846672406827, "lng": 73.91527388888889}, "snapped_location": {"lat": 18.510596, "lng": 73.9154602}, "grid_x": 14, "grid_y": 10, "snap_result_types": ["route"], "snap_result_place_id": "ChIJs04SIOvBwjsRatIRKYSntIs"}, {"raw_location": {"lat": 18.509846672406827, "lng": 73.92742666666668}, "snapped_location": {"lat": 18.5103528, "lng": 73.9275269}, "grid_x": 15, "grid_y": 10, "snap_result_types": ["route"], "snap_result_place_id": "ChIJUwgxBvPBwjsRQkm0e5ux2v8"}, {"raw_location": {"lat": 18.509846672406827, "lng": 73.93957944444445}, "snapped_location": {"lat": 18.5102346, "lng": 73.9393745}, "grid_x": 16, "grid_y": 10, "snap_result_types": ["route"], "snap_result_place_id": "ChIJOXwW6R7CwjsRtLywf2GlwFU"}, {"raw_location": {"lat": 18.509846672406827, "lng": 73.95173222222223}, "snapped_location": {"lat": 18.509615, "lng": 73.95064470000001}, "grid_x": 17, "grid_y": 10, "snap_result_types": ["route"], "snap_result_place_id": "ChIJCRED1hbCwjsR9vCmtr-VraM"}, {"raw_location": {"lat": 18.509846672406827, "lng": 73.963885}, "snapped_location": {"lat": 18.5097509, "lng": 73.96385719999999}, "grid_x": 18, "grid_y": 10, "snap_result_types": ["route"], "snap_result_place_id": "ChIJFwxFc2zCwjsRvB2-R9GHaLI"}, {"raw_location": {"lat": 18.498323344813652, "lng": 73.745135}, "snapped_location": {"lat": 18.4989355, "lng": 73.74395249999999}, "grid_x": 0, "grid_y": 11, "snap_result_types": ["route"], "snap_result_place_id": "ChIJy0fsbt69wjsRdtxLnL7WI6E"}, {"raw_location": {"lat": 18.498323344813652, "lng": 73.75728777777778}, "snapped_location": {"lat": 18.4979975, "lng": 73.7568051}, "grid_x": 1, "grid_y": 11, "snap_result_types": ["route"], "snap_result_place_id": "ChIJ7wggKw2-wjsRSKGTnh6-cbw"}, {"raw_location": {"lat": 18.498323344813652, "lng": 73.76944055555556}, "snapped_location": {"lat": 18.4994728, "lng": 73.7674962}, "grid_x": 2, "grid_y": 11, "snap_result_types": ["route"], "snap_result_place_id": "ChIJj4V4NGu-wjsRetcLx_k6uoY"}, {"raw_location": {"lat": 18.498323344813652, "lng": 73.78159333333333}, "snapped_location": {"lat": 18.497491, "lng": 73.783081}, "grid_x": 3, "grid_y": 11, "snap_result_types": ["route"], "snap_result_place_id": "ChIJUVMU1Tm-wjsRUsaE_vVMz4Q"}, {"raw_location": {"lat": 18.498323344813652, "lng": 73.79374611111112}, "snapped_location": {"lat": 18.4983613, "lng": 73.7941494}, "grid_x": 4, "grid_y": 11, "snap_result_types": ["route"], "snap_result_place_id": "ChIJN_Kp0DS-wjsRmLAe7Jeuf0o"}, {"raw_location": {"lat": 18.498323344813652, "lng": 73.80589888888889}, "snapped_location": {"lat": 18.4987761, "lng": 73.8054927}, "grid_x": 5, "grid_y": 11, "snap_result_types": ["route"], "snap_result_place_id": "ChIJ0xsPksi_wjsRsIY8DVuayuw"}, {"raw_location": {"lat": 18.498323344813652, "lng": 73.81805166666668}, "snapped_location": {"lat": 18.4989164, "lng": 73.817172}, "grid_x": 6, "grid_y": 11, "snap_result_types": ["route"], "snap_result_place_id": "ChIJc9A-6sG_wjsRXnjFDDZkm5o"}, {"raw_location": {"lat": 18.498323344813652, "lng": 73.83020444444445}, "snapped_location": {"lat": 18.4984395, "lng": 73.8300865}, "grid_x": 7, "grid_y": 11, "snap_result_types": ["route"], "snap_result_place_id": "ChIJvYCUAe6_wjsRkGszoFTXGns"}, {"raw_location": {"lat": 18.498323344813652, "lng": 73.84235722222223}, "snapped_location": {"lat": 18.498732, "lng": 73.8421312}, "grid_x": 8, "grid_y": 11, "snap_result_types": ["route"], "snap_result_place_id": "ChIJJWXP4wnAwjsRSB_q88t-g6c"}, {"raw_location": {"lat": 18.498323344813652, "lng": 73.85451}, "snapped_location": {"lat": 18.4986475, "lng": 73.8540621}, "grid_x": 9, "grid_y": 11, "snap_result_types": ["route"], "snap_result_place_id": "ChIJ70nt0xHAwjsRyvfxb1jcWmY"}, {"raw_location": {"lat": 18.498323344813652, "lng": 73.86666277777778}, "snapped_location": {"lat": 18.4988347, "lng": 73.8638201}, "grid_x": 10, "grid_y": 11, "snap_result_types": ["route"], "snap_result_place_id": "ChIJ39JUDD3AwjsR0OqYP6yw-0M"}, {"raw_location": {"lat": 18.498323344813652, "lng": 73.87881555555556}, "snapped_location": {"lat": 18.4980841, "lng": 73.8792868}, "grid_x": 11, "grid_y": 11, "snap_result_types": ["route"], "snap_result_place_id": "ChIJV_AJOjDAwjsRgGSUnxTid80"}, {"raw_location": {"lat": 18.498323344813652, "lng": 73.89096833333333}, "snapped_location": {"lat": 18.4983004, "lng": 73.8913099}, "grid_x": 12, "grid_y": 11, "snap_result_types": ["route"], "snap_result_place_id": "ChIJl-Ntfc3BwjsRtlMdr5iOs8s"}, {"raw_location": {"lat": 18.498323344813652, "lng": 73.90312111111112}, "snapped_location": {"lat": 18.4982017, "lng": 73.9030169}, "grid_x": 13, "grid_y": 11, "snap_result_types": ["route"], "snap_result_place_id": "ChIJY4B4xNrBwjsRFB0ecwGt6KY"}, {"raw_location": {"lat": 18.498323344813652, "lng": 73.91527388888889}, "snapped_location": {"lat": 18.4967043, "lng": 73.916479}, "grid_x": 14, "grid_y": 11, "snap_result_types": ["route"], "snap_result_place_id": "ChIJIbdP3ebBwjsRvm9LNQRMnQE"}, {"raw_location": {"lat": 18.498323344813652, "lng": 73.92742666666668}, "snapped_location": {"lat": 18.4983971, "lng": 73.92729709999999}, "grid_x": 15, "grid_y": 11, "snap_result_types": ["route"], "snap_result_place_id": "ChIJYzzwqvvBwjsR6n6rX4WL-Ck"}, {"raw_location": {"lat": 18.498323344813652, "lng": 73.93957944444445}, "snapped_location": {"lat": 18.4985021, "lng": 73.9402057}, "grid_x": 16, "grid_y": 11, "snap_result_types": ["route"], "snap_result_place_id": "ChIJ7xRhvgPCwjsRVHgKsvx7UYU"}, {"raw_location": {"lat": 18.498323344813652, "lng": 73.95173222222223}, "snapped_location": {"lat": 18.4980252, "lng": 73.95195389999999}, "grid_x": 17, "grid_y": 11, "snap_result_types": ["route"], "snap_result_place_id": "ChIJZbFryQ7CwjsRlA8d3Sn54UQ"}, {"raw_location": {"lat": 18.498323344813652, "lng": 73.963885}, "snapped_location": {"lat": 18.4972642, "lng": 73.9650547}, "grid_x": 18, "grid_y": 11, "snap_result_types": ["route"], "snap_result_place_id": "ChIJebnYI3TCwjsRrIq3bA9BdIg"}, {"raw_location": {"lat": 18.486800017220475, "lng": 73.745135}, "snapped_location": {"lat": 18.4869585, "lng": 73.74541370000001}, "grid_x": 0, "grid_y": 12, "snap_result_types": ["route"], "snap_result_place_id": "ChIJfZl53eK9wjsRsMLWeqtdi8o"}, {"raw_location": {"lat": 18.486800017220475, "lng": 73.75728777777778}, "snapped_location": {"lat": 18.4859433, "lng": 73.75871889999999}, "grid_x": 1, "grid_y": 12, "snap_result_types": ["route"], "snap_result_place_id": "ChIJyWi3lge-wjsR2tkhgp0acRo"}, {"raw_location": {"lat": 18.486800017220475, "lng": 73.76944055555556}, "snapped_location": {"lat": 18.4867862, "lng": 73.7681929}, "grid_x": 2, "grid_y": 12, "snap_result_types": ["route"], "snap_result_place_id": "ChIJGV8yhT2-wjsRal7HLunbCvo"}, {"raw_location": {"lat": 18.486800017220475, "lng": 73.78159333333333}, "snapped_location": {"lat": 18.4863908, "lng": 73.7823927}, "grid_x": 3, "grid_y": 12, "snap_result_types": ["route"], "snap_result_place_id": "ChIJhcjvfCW-wjsRtggfxvcHnJw"}, {"raw_location": {"lat": 18.486800017220475, "lng": 73.79374611111112}, "snapped_location": {"lat": 18.4867045, "lng": 73.7941015}, "grid_x": 4, "grid_y": 12, "snap_result_types": ["route"], "snap_result_place_id": "ChIJgSQP2Cy-wjsRPj_D8eFE51o"}, {"raw_location": {"lat": 18.486800017220475, "lng": 73.80589888888889}, "snapped_location": {"lat": 18.4869498, "lng": 73.8062619}, "grid_x": 5, "grid_y": 12, "snap_result_types": ["route"], "snap_result_place_id": "ChIJJa_1m9C_wjsRdA0f8cOWJ4E"}, {"raw_location": {"lat": 18.486800017220475, "lng": 73.81805166666668}, "snapped_location": {"lat": 18.4860458, "lng": 73.8180318}, "grid_x": 6, "grid_y": 12, "snap_result_types": ["route"], "snap_result_place_id": "ChIJ6ShdA96_wjsRQGcvJ4jOxn8"}, {"raw_location": {"lat": 18.486800017220475, "lng": 73.83020444444445}, "snapped_location": {"lat": 18.4882459, "lng": 73.830612}, "grid_x": 7, "grid_y": 12, "snap_result_types": ["route"], "snap_result_place_id": "ChIJNeaBkPy_wjsRItdNupPnuhM"}, {"raw_location": {"lat": 18.486800017220475, "lng": 73.84235722222223}, "snapped_location": {"lat": 18.4875092, "lng": 73.8426667}, "grid_x": 8, "grid_y": 12, "snap_result_types": ["route"], "snap_result_place_id": "ChIJP663ugDAwjsRrpGGzaRSL8s"}, {"raw_location": {"lat": 18.486800017220475, "lng": 73.85451}, "snapped_location": {"lat": 18.4868876, "lng": 73.8546465}, "grid_x": 9, "grid_y": 12, "snap_result_types": ["route"], "snap_result_place_id": "ChIJpz0r4RzAwjsRhA9DBkActNk"}, {"raw_location": {"lat": 18.486800017220475, "lng": 73.86666277777778}, "snapped_location": {"lat": 18.4869417, "lng": 73.86675439999999}, "grid_x": 10, "grid_y": 12, "snap_result_types": ["route"], "snap_result_place_id": "ChIJtwi6NyDAwjsRJkYRiXYLEz8"}, {"raw_location": {"lat": 18.486800017220475, "lng": 73.87881555555556}, "snapped_location": {"lat": 18.4881492, "lng": 73.87763439999999}, "grid_x": 11, "grid_y": 12, "snap_result_types": ["route"], "snap_result_place_id": "ChIJj68uHCbAwjsRCBV9574Se80"}, {"raw_location": {"lat": 18.486800017220475, "lng": 73.89096833333333}, "snapped_location": {"lat": 18.4868114, "lng": 73.8908982}, "grid_x": 12, "grid_y": 12, "snap_result_types": ["route"], "snap_result_place_id": "ChIJofjie9XBwjsRJhbf8ObmAPM"}, {"raw_location": {"lat": 18.486800017220475, "lng": 73.90312111111112}, "snapped_location": {"lat": 18.4863641, "lng": 73.90332289999999}, "grid_x": 13, "grid_y": 12, "snap_result_types": ["route"], "snap_result_place_id": "ChIJp2BuzHfqwjsRKE45moQTUV8"}, {"raw_location": {"lat": 18.486800017220475, "lng": 73.91527388888889}, "snapped_location": {"lat": 18.4869548, "lng": 73.91752369999999}, "grid_x": 14, "grid_y": 12, "snap_result_types": ["route"], "snap_result_place_id": "ChIJZR4AJQrqwjsR_n3BmUI3o-s"}, {"raw_location": {"lat": 18.486800017220475, "lng": 73.92742666666668}, "snapped_location": {"lat": 18.4868278, "lng": 73.9274512}, "grid_x": 15, "grid_y": 12, "snap_result_types": ["route"], "snap_result_place_id": "ChIJOQiL_gbqwjsRJmmOI6nMkAY"}, {"raw_location": {"lat": 18.486800017220475, "lng": 73.93957944444445}, "snapped_location": {"lat": 18.4867664, "lng": 73.9394124}, "grid_x": 16, "grid_y": 12, "snap_result_types": ["route"], "snap_result_place_id": "ChIJN5vb5v7pwjsRrJMQj_oRIVE"}, {"raw_location": {"lat": 18.486800017220475, "lng": 73.95173222222223}, "snapped_location": {"lat": 18.4871101, "lng": 73.9517414}, "grid_x": 17, "grid_y": 12, "snap_result_types": ["route"], "snap_result_place_id": "ChIJe0GDkePpwjsR-oMTzo63zCw"}, {"raw_location": {"lat": 18.486800017220475, "lng": 73.963885}, "snapped_location": {"lat": 18.4886089, "lng": 73.9634853}, "grid_x": 18, "grid_y": 12, "snap_result_types": ["route"], "snap_result_place_id": "ChIJ9-6kpt7pwjsRQmnWp_F9lJE"}, {"raw_location": {"lat": 18.4752766896273, "lng": 73.745135}, "snapped_location": {"lat": 18.472743, "lng": 73.7478048}, "grid_x": 0, "grid_y": 13, "snap_result_types": ["route"], "snap_result_place_id": "ChIJvfj7EQCWwjsRaI76BoTcQQM"}, {"raw_location": {"lat": 18.4752766896273, "lng": 73.75728777777778}, "snapped_location": {"lat": 18.4746519, "lng": 73.7565551}, "grid_x": 1, "grid_y": 13, "snap_result_types": ["route"], "snap_result_place_id": "ChIJwaK3tviVwjsRphBTogKXulk"}, {"raw_location": {"lat": 18.4752766896273, "lng": 73.76944055555556}, "snapped_location": {"lat": 18.4750432, "lng": 73.7669453}, "grid_x": 2, "grid_y": 13, "snap_result_types": ["route"], "snap_result_place_id": "ChIJN9SJD_aVwjsRwkhshqbrwms"}, {"raw_location": {"lat": 18.4752766896273, "lng": 73.78159333333333}, "snapped_location": {"lat": 18.4754755, "lng": 73.7810138}, "grid_x": 3, "grid_y": 13, "snap_result_types": ["route"], "snap_result_place_id": "ChIJmV30RoiVwjsRMiFjm321M4g"}, {"raw_location": {"lat": 18.4752766896273, "lng": 73.79374611111112}, "snapped_location": {"lat": 18.4743676, "lng": 73.7941342}, "grid_x": 4, "grid_y": 13, "snap_result_types": ["route"], "snap_result_place_id": "ChIJoyK0xIGVwjsRLMKnI7gWN90"}, {"raw_location": {"lat": 18.4752766896273, "lng": 73.80589888888889}, "snapped_location": {"lat": 18.4747229, "lng": 73.80559029999999}, "grid_x": 5, "grid_y": 13, "snap_result_types": ["route"], "snap_result_place_id": "ChIJlWYnv3yVwjsRMHefKPh8CcY"}, {"raw_location": {"lat": 18.4752766896273, "lng": 73.81805166666668}, "snapped_location": {"lat": 18.4753402, "lng": 73.81869549999999}, "grid_x": 6, "grid_y": 13, "snap_result_types": ["route"], "snap_result_place_id": "ChIJlYZBA16VwjsRluOb2SnLB1A"}, {"raw_location": {"lat": 18.4752766896273, "lng": 73.83020444444445}, "snapped_location": {"lat": 18.4755023, "lng": 73.8301019}, "grid_x": 7, "grid_y": 13, "snap_result_types": ["route"], "snap_result_place_id": "ChIJgYJuAFqVwjsRiqNTogG_xJw"}, {"raw_location": {"lat": 18.4752766896273, "lng": 73.84235722222223}, "snapped_location": {"lat": 18.4725458, "lng": 73.84365249999999}, "grid_x": 8, "grid_y": 13, "snap_result_types": ["route"], "snap_result_place_id": "ChIJmZ_hprLqwjsRSq2KRMrgr9Q"}, {"raw_location": {"lat": 18.4752766896273, "lng": 73.85451}, "snapped_location": {"lat": 18.4753662, "lng": 73.8546148}, "grid_x": 9, "grid_y": 13, "snap_result_types": ["route"], "snap_result_place_id": "ChIJSXl0m6XqwjsRHNj7TFG_ggk"}, {"raw_location": {"lat": 18.4752766896273, "lng": 73.86666277777778}, "snapped_location": {"lat": 18.476566, "lng": 73.8672739}, "grid_x": 10, "grid_y": 13, "snap_result_types": ["route"], "snap_result_place_id": "ChIJS1uV8ZjqwjsRVJMVxDwfbvE"}, {"raw_location": {"lat": 18.4752766896273, "lng": 73.87881555555556}, "snapped_location": {"lat": 18.4753024, "lng": 73.8801055}, "grid_x": 11, "grid_y": 13, "snap_result_types": ["route"], "snap_result_place_id": "ChIJf1dKnIXqwjsRICT6MVnL-mc"}, {"raw_location": {"lat": 18.4752766896273, "lng": 73.89096833333333}, "snapped_location": {"lat": 18.4751845, "lng": 73.8906635}, "grid_x": 12, "grid_y": 13, "snap_result_types": ["route"], "snap_result_place_id": "ChIJgXhXzGLqwjsRgrLw4kTOkq4"}, {"raw_location": {"lat": 18.4752766896273, "lng": 73.90312111111112}, "snapped_location": {"lat": 18.4763316, "lng": 73.902197}, "grid_x": 13, "grid_y": 13, "snap_result_types": ["route"], "snap_result_place_id": "ChIJ1e1V_W_qwjsRiM5Zr-i0PoQ"}, {"raw_location": {"lat": 18.4752766896273, "lng": 73.91527388888889}, "snapped_location": {"lat": 18.4756593, "lng": 73.91621529999999}, "grid_x": 14, "grid_y": 13, "snap_result_types": ["route"], "snap_result_place_id": "ChIJ977WZxLqwjsRTuHg_pk1TNE"}, {"raw_location": {"lat": 18.4752766896273, "lng": 73.92742666666668}, "snapped_location": {"lat": 18.4752529, "lng": 73.9273963}, "grid_x": 15, "grid_y": 13, "snap_result_types": ["route"], "snap_result_place_id": "ChIJnTKhqxvqwjsRnjabbmJzbUI"}, {"raw_location": {"lat": 18.4752766896273, "lng": 73.93957944444445}, "snapped_location": {"lat": 18.4759355, "lng": 73.93959250000002}, "grid_x": 16, "grid_y": 13, "snap_result_types": ["route"], "snap_result_place_id": "ChIJ47Ov8fbpwjsRwoF2HorLaV8"}, {"raw_location": {"lat": 18.4752766896273, "lng": 73.95173222222223}, "snapped_location": {"lat": 18.4752985, "lng": 73.9512334}, "grid_x": 17, "grid_y": 13, "snap_result_types": ["route"], "snap_result_place_id": "ChIJRybNhe7pwjsRllHvCNcQdXI"}, {"raw_location": {"lat": 18.4752766896273, "lng": 73.963885}, "snapped_location": {"lat": 18.4753284, "lng": 73.9648996}, "grid_x": 18, "grid_y": 13, "snap_result_types": ["route"], "snap_result_place_id": "ChIJuzQcUsHpwjsR1IzSRtAgai8"}, {"raw_location": {"lat": 18.463753362034126, "lng": 73.745135}, "snapped_location": {"lat": 18.4640142, "lng": 73.7444781}, "grid_x": 0, "grid_y": 14, "snap_result_types": ["route"], "snap_result_place_id": "ChIJ9XZcSgaWwjsRmDv-rNuT2NQ"}, {"raw_location": {"lat": 18.463753362034126, "lng": 73.75728777777778}, "snapped_location": {"lat": 18.4636843, "lng": 73.7570477}, "grid_x": 1, "grid_y": 14, "snap_result_types": ["route"], "snap_result_place_id": "ChIJc5gT1PqVwjsRIs8f633tutw"}, {"raw_location": {"lat": 18.463753362034126, "lng": 73.76944055555556}, "snapped_location": {"lat": 18.4638918, "lng": 73.77077179999999}, "grid_x": 2, "grid_y": 14, "snap_result_types": ["route"], "snap_result_place_id": "ChIJC8ItZO2VwjsRAHvN9oIiMBc"}, {"raw_location": {"lat": 18.463753362034126, "lng": 73.78159333333333}, "snapped_location": {"lat": 18.4637164, "lng": 73.7820612}, "grid_x": 3, "grid_y": 14, "snap_result_types": ["route"], "snap_result_place_id": "ChIJ1VMXbJCVwjsR3klTuIHOUqA"}, {"raw_location": {"lat": 18.463753362034126, "lng": 73.79374611111112}, "snapped_location": {"lat": 18.461171, "lng": 73.794196}, "grid_x": 4, "grid_y": 14, "snap_result_types": ["route"], "snap_result_place_id": "ChIJ-wpP552VwjsRtPlxHuAhoi4"}, {"raw_location": {"lat": 18.463753362034126, "lng": 73.80589888888889}, "snapped_location": {"lat": 18.4627723, "lng": 73.8061195}, "grid_x": 5, "grid_y": 14, "snap_result_types": ["route"], "snap_result_place_id": "ChIJP8s_8HGVwjsR-mfAMYIL9Zk"}, {"raw_location": {"lat": 18.463753362034126, "lng": 73.81805166666668}, "snapped_location": {"lat": 18.4645248, "lng": 73.8181405}, "grid_x": 6, "grid_y": 14, "snap_result_types": ["route"], "snap_result_place_id": "ChIJyVdl22mVwjsR-NjJTLga1zU"}, {"raw_location": {"lat": 18.463753362034126, "lng": 73.83020444444445}, "snapped_location": {"lat": 18.463326, "lng": 73.829841}, "grid_x": 7, "grid_y": 14, "snap_result_types": ["route"], "snap_result_place_id": "ChIJSya8HEaVwjsRomsHY130zkE"}, {"raw_location": {"lat": 18.463753362034126, "lng": 73.84235722222223}, "snapped_location": {"lat": 18.4637897, "lng": 73.8433566}, "grid_x": 8, "grid_y": 14, "snap_result_types": ["route"], "snap_result_place_id": "ChIJC80WwLTqwjsRXDIhAeSjV4E"}, {"raw_location": {"lat": 18.463753362034126, "lng": 73.85451}, "snapped_location": {"lat": 18.4637651, "lng": 73.8540828}, "grid_x": 9, "grid_y": 14, "snap_result_types": ["route"], "snap_result_place_id": "ChIJVfC11rnqwjsRusQdCU69YoE"}, {"raw_location": {"lat": 18.463753362034126, "lng": 73.86666277777778}, "snapped_location": {"lat": 18.4635747, "lng": 73.86662249999999}, "grid_x": 10, "grid_y": 14, "snap_result_types": ["route"], "snap_result_place_id": "ChIJve3MbZXqwjsRuJjMz0psz6I"}, {"raw_location": {"lat": 18.463753362034126, "lng": 73.87881555555556}, "snapped_location": {"lat": 18.463703, "lng": 73.87900549999999}, "grid_x": 11, "grid_y": 14, "snap_result_types": ["route"], "snap_result_place_id": "ChIJWXxJ34zqwjsRLnooFb3msXM"}, {"raw_location": {"lat": 18.463753362034126, "lng": 73.89096833333333}, "snapped_location": {"lat": 18.4644278, "lng": 73.8912342}, "grid_x": 12, "grid_y": 14, "snap_result_types": ["route"], "snap_result_place_id": "ChIJpzeyemDqwjsRLLlYM0KyNEM"}, {"raw_location": {"lat": 18.463753362034126, "lng": 73.90312111111112}, "snapped_location": {"lat": 18.4636307, "lng": 73.903301}, "grid_x": 13, "grid_y": 14, "snap_result_types": ["route"], "snap_result_place_id": "ChIJPSl5iULqwjsRZCuNg9WpnL4"}, {"raw_location": {"lat": 18.463753362034126, "lng": 73.91527388888889}, "snapped_location": {"lat": 18.463949, "lng": 73.915063}, "grid_x": 14, "grid_y": 14, "snap_result_types": ["route"], "snap_result_place_id": "ChIJE79rtD_qwjsRfkQWkERKLpM"}, {"raw_location": {"lat": 18.463753362034126, "lng": 73.92742666666668}, "snapped_location": {"lat": 18.462621, "lng": 73.9264555}, "grid_x": 15, "grid_y": 14, "snap_result_types": ["route"], "snap_result_place_id": "ChIJ09n0BSPqwjsR0rz1sp9eQrQ"}, {"raw_location": {"lat": 18.463753362034126, "lng": 73.93957944444445}, "snapped_location": {"lat": 18.4642636, "lng": 73.93878269999999}, "grid_x": 16, "grid_y": 14, "snap_result_types": ["route"], "snap_result_place_id": "ChIJ_y94VorpwjsR6H8YdU2cTjg"}, {"raw_location": {"lat": 18.463753362034126, "lng": 73.95173222222223}, "snapped_location": {"lat": 18.4634509, "lng": 73.9520264}, "grid_x": 17, "grid_y": 14, "snap_result_types": ["route"], "snap_result_place_id": "ChIJkzdr35PpwjsR9D9WcGW3Rj4"}, {"raw_location": {"lat": 18.463753362034126, "lng": 73.963885}, "snapped_location": {"lat": 18.4636854, "lng": 73.9632582}, "grid_x": 18, "grid_y": 14, "snap_result_types": ["route"], "snap_result_place_id": "ChIJGYGYJbzpwjsRdDscp75jpZ4"}, {"raw_location": {"lat": 18.45223003444095, "lng": 73.745135}, "snapped_location": {"lat": 18.4525307, "lng": 73.74670019999999}, "grid_x": 0, "grid_y": 15, "snap_result_types": ["route"], "snap_result_place_id": "ChIJDxLlvQqWwjsR0EV5UtBF30U"}, {"raw_location": {"lat": 18.45223003444095, "lng": 73.75728777777778}, "snapped_location": {"lat": 18.4521073, "lng": 73.7577137}, "grid_x": 1, "grid_y": 15, "snap_result_types": ["route"], "snap_result_place_id": "ChIJz9MfiueVwjsRzk-rMif0rAc"}, {"raw_location": {"lat": 18.45223003444095, "lng": 73.76944055555556}, "snapped_location": {"lat": 18.4524786, "lng": 73.7682911}, "grid_x": 2, "grid_y": 15, "snap_result_types": ["route"], "snap_result_place_id": "ChIJd3gn08GVwjsRSANu6zVbCIg"}, {"raw_location": {"lat": 18.45223003444095, "lng": 73.78159333333333}, "snapped_location": {"lat": 18.4518674, "lng": 73.781222}, "grid_x": 3, "grid_y": 15, "snap_result_types": ["route"], "snap_result_place_id": "ChIJC_z4Gr2VwjsR_guLzj-mf4A"}, {"raw_location": {"lat": 18.45223003444095, "lng": 73.79374611111112}, "snapped_location": {"lat": 18.4526065, "lng": 73.7932804}, "grid_x": 4, "grid_y": 15, "snap_result_types": ["route"], "snap_result_place_id": "ChIJn0hsXqCVwjsR6lre_nY5aU8"}, {"raw_location": {"lat": 18.45223003444095, "lng": 73.80589888888889}, "snapped_location": {"lat": 18.4514928, "lng": 73.80758630000001}, "grid_x": 5, "grid_y": 15, "snap_result_types": ["route"], "snap_result_place_id": "ChIJdVT-LxKVwjsRgtmv-nc5dy4"}, {"raw_location": {"lat": 18.45223003444095, "lng": 73.81805166666668}, "snapped_location": {"lat": 18.4525594, "lng": 73.8176495}, "grid_x": 6, "grid_y": 15, "snap_result_types": ["route"], "snap_result_place_id": "ChIJ8_Uk8RWVwjsRRLTKi4OmB9M"}, {"raw_location": {"lat": 18.45223003444095, "lng": 73.83020444444445}, "snapped_location": {"lat": 18.4531494, "lng": 73.8287806}, "grid_x": 7, "grid_y": 15, "snap_result_types": ["route"], "snap_result_place_id": "ChIJ-y5Y8jmVwjsRULToSatMoRg"}, {"raw_location": {"lat": 18.45223003444095, "lng": 73.84235722222223}, "snapped_location": {"lat": 18.4526363, "lng": 73.84318809999999}, "grid_x": 8, "grid_y": 15, "snap_result_types": ["route"], "snap_result_place_id": "ChIJixWElczqwjsRuqflySQu3fE"}, {"raw_location": {"lat": 18.45223003444095, "lng": 73.85451}, "snapped_location": {"lat": 18.4521521, "lng": 73.85453629999999}, "grid_x": 9, "grid_y": 15, "snap_result_types": ["route"], "snap_result_place_id": "ChIJEXHynMXqwjsR6szEDF6AtGY"}, {"raw_location": {"lat": 18.45223003444095, "lng": 73.86666277777778}, "snapped_location": {"lat": 18.4520641, "lng": 73.86666029999999}, "grid_x": 10, "grid_y": 15, "snap_result_types": ["route"], "snap_result_place_id": "ChIJJ5LtOOjqwjsR4L6ZoEVK74U"}, {"raw_location": {"lat": 18.45223003444095, "lng": 73.87881555555556}, "snapped_location": {"lat": 18.4521384, "lng": 73.87926689999999}, "grid_x": 11, "grid_y": 15, "snap_result_types": ["route"], "snap_result_place_id": "ChIJmeTUafDqwjsR1MQzY06IF1A"}, {"raw_location": {"lat": 18.45223003444095, "lng": 73.89096833333333}, "snapped_location": {"lat": 18.4523441, "lng": 73.8909321}, "grid_x": 12, "grid_y": 15, "snap_result_types": ["route"], "snap_result_place_id": "ChIJWZgCJ1jqwjsRtswvnwMUEfk"}, {"raw_location": {"lat": 18.45223003444095, "lng": 73.90312111111112}, "snapped_location": {"lat": 18.452455, "lng": 73.9031596}, "grid_x": 13, "grid_y": 15, "snap_result_types": ["route"], "snap_result_place_id": "ChIJIX4jm0_qwjsR6EHWie2hPZc"}, {"raw_location": {"lat": 18.45223003444095, "lng": 73.91527388888889}, "snapped_location": {"lat": 18.4521759, "lng": 73.91547039999999}, "grid_x": 14, "grid_y": 15, "snap_result_types": ["route"], "snap_result_place_id": "ChIJr5AFCDfqwjsRkhlIlIBiAak"}, {"raw_location": {"lat": 18.45223003444095, "lng": 73.92742666666668}, "snapped_location": {"lat": 18.4524725, "lng": 73.92724910000001}, "grid_x": 15, "grid_y": 15, "snap_result_types": ["route"], "snap_result_place_id": "ChIJOU7b_y7qwjsRLmne_kb0Nwc"}, {"raw_location": {"lat": 18.45223003444095, "lng": 73.93957944444445}, "snapped_location": {"lat": 18.4524365, "lng": 73.9400283}, "grid_x": 16, "grid_y": 15, "snap_result_types": ["route"], "snap_result_place_id": "ChIJUe4Ow4bpwjsRlJdhoc7knNA"}, {"raw_location": {"lat": 18.45223003444095, "lng": 73.95173222222223}, "snapped_location": {"lat": 18.4521948, "lng": 73.9517745}, "grid_x": 17, "grid_y": 15, "snap_result_types": ["route"], "snap_result_place_id": "ChIJBzmGjpvpwjsR3oJeK7F6pCU"}, {"raw_location": {"lat": 18.45223003444095, "lng": 73.963885}, "snapped_location": {"lat": 18.451864, "lng": 73.96372889999999}, "grid_x": 18, "grid_y": 15, "snap_result_types": ["route"], "snap_result_place_id": "ChIJraPzaKHpwjsRGtq3Q9OFiPA"}, {"raw_location": {"lat": 18.440706706847774, "lng": 73.745135}, "snapped_location": {"lat": 18.4431676, "lng": 73.7366095}, "grid_x": 0, "grid_y": 16, "snap_result_types": ["route"], "snap_result_place_id": "ChIJQbUHlXmWwjsR5J3C_rwqc9A"}, {"raw_location": {"lat": 18.440706706847774, "lng": 73.75728777777778}, "snapped_location": {"lat": 18.4372903, "lng": 73.7577295}, "grid_x": 1, "grid_y": 16, "snap_result_types": ["route"], "snap_result_place_id": "ChIJO3wo89CVwjsRULH0GuX4Wac"}, {"raw_location": {"lat": 18.440706706847774, "lng": 73.76944055555556}, "snapped_location": {"lat": 18.4418482, "lng": 73.76925729999999}, "grid_x": 2, "grid_y": 16, "snap_result_types": ["route"], "snap_result_place_id": "ChIJB3lF2MeVwjsRnvzMTB9z7VA"}, {"raw_location": {"lat": 18.440706706847774, "lng": 73.78159333333333}, "snapped_location": {"lat": 18.4398508, "lng": 73.78180909999999}, "grid_x": 3, "grid_y": 16, "snap_result_types": ["route"], "snap_result_place_id": "ChIJjV96S7CVwjsRcL-QESuWndY"}, {"raw_location": {"lat": 18.440706706847774, "lng": 73.79374611111112}, "snapped_location": {"lat": 18.441377, "lng": 73.7938748}, "grid_x": 4, "grid_y": 16, "snap_result_types": ["route"], "snap_result_place_id": "ChIJO0TeMKiVwjsR8ENszl_3NJk"}, {"raw_location": {"lat": 18.440706706847774, "lng": 73.80589888888889}, "snapped_location": {"lat": 18.4426923, "lng": 73.80460479999999}, "grid_x": 5, "grid_y": 16, "snap_result_types": ["route"], "snap_result_place_id": "ChIJLYpbBQWVwjsRLm0aIF7m_BI"}, {"raw_location": {"lat": 18.440706706847774, "lng": 73.81805166666668}, "snapped_location": {"lat": 18.4416097, "lng": 73.8178083}, "grid_x": 6, "grid_y": 16, "snap_result_types": ["route"], "snap_result_place_id": "ChIJ9a4qmhiVwjsRyN6msknqM6Y"}, {"raw_location": {"lat": 18.440706706847774, "lng": 73.83020444444445}, "snapped_location": {"lat": 18.4401324, "lng": 73.830624}, "grid_x": 7, "grid_y": 16, "snap_result_types": ["route"], "snap_result_place_id": "ChIJnyHBoyiVwjsRCkOS5D_KhK0"}, {"raw_location": {"lat": 18.440706706847774, "lng": 73.84235722222223}, "snapped_location": {"lat": 18.4399905, "lng": 73.8427148}, "grid_x": 8, "grid_y": 16, "snap_result_types": ["route"], "snap_result_place_id": "ChIJ61fI0dTqwjsRNDW1sPQYUYo"}, {"raw_location": {"lat": 18.440706706847774, "lng": 73.85451}, "snapped_location": {"lat": 18.4409336, "lng": 73.8546377}, "grid_x": 9, "grid_y": 16, "snap_result_types": ["route"], "snap_result_place_id": "ChIJ7SMdz9nqwjsRegHLzGWOicc"}, {"raw_location": {"lat": 18.440706706847774, "lng": 73.86666277777778}, "snapped_location": {"lat": 18.4405026, "lng": 73.86617059999999}, "grid_x": 10, "grid_y": 16, "snap_result_types": ["route"], "snap_result_place_id": "ChIJiYHSceDqwjsRcoZktc3AD00"}, {"raw_location": {"lat": 18.440706706847774, "lng": 73.87881555555556}, "snapped_location": {"lat": 18.4408362, "lng": 73.8790831}, "grid_x": 11, "grid_y": 16, "snap_result_types": ["route"], "snap_result_place_id": "ChIJ55hvbP3qwjsRXnB5LZAW4mk"}, {"raw_location": {"lat": 18.440706706847774, "lng": 73.89096833333333}, "snapped_location": {"lat": 18.4406181, "lng": 73.8919817}, "grid_x": 12, "grid_y": 16, "snap_result_types": ["route"], "snap_result_place_id": "ChIJkzORLKvrwjsRWjDWAE_-A6I"}, {"raw_location": {"lat": 18.440706706847774, "lng": 73.90312111111112}, "snapped_location": {"lat": 18.4411818, "lng": 73.90306559999999}, "grid_x": 13, "grid_y": 16, "snap_result_types": ["route"], "snap_result_place_id": "ChIJBxdu27LrwjsR5iWVnFPuk9g"}, {"raw_location": {"lat": 18.440706706847774, "lng": 73.91527388888889}, "snapped_location": {"lat": 18.4402336, "lng": 73.9154104}, "grid_x": 14, "grid_y": 16, "snap_result_types": ["route"], "snap_result_place_id": "ChIJVwLX_8rrwjsR3vV1npv-o7I"}, {"raw_location": {"lat": 18.440706706847774, "lng": 73.92742666666668}, "snapped_location": {"lat": 18.439584, "lng": 73.9266035}, "grid_x": 15, "grid_y": 16, "snap_result_types": ["route"], "snap_result_place_id": "ChIJt-dqL9LrwjsRjD2o9OvhYEU"}, {"raw_location": {"lat": 18.440706706847774, "lng": 73.93957944444445}, "snapped_location": {"lat": 18.4401336, "lng": 73.93862969999999}, "grid_x": 16, "grid_y": 16, "snap_result_types": ["route"], "snap_result_place_id": "ChIJVdrXY37pwjsRLmKKEWALVKk"}, {"raw_location": {"lat": 18.440706706847774, "lng": 73.95173222222223}, "snapped_location": {"lat": 18.4404515, "lng": 73.9516921}, "grid_x": 17, "grid_y": 16, "snap_result_types": ["route"], "snap_result_place_id": "ChIJT8M8zHbpwjsRagNRUsQ4Gb4"}, {"raw_location": {"lat": 18.440706706847774, "lng": 73.963885}, "snapped_location": {"lat": 18.4408029, "lng": 73.9639203}, "grid_x": 18, "grid_y": 16, "snap_result_types": ["route"], "snap_result_place_id": "ChIJj-utDAzpwjsRaPKutblFuXI"}, {"raw_location": {"lat": 18.4291833792546, "lng": 73.745135}, "snapped_location": {"lat": 18.4320658, "lng": 73.7439819}, "grid_x": 0, "grid_y": 17, "snap_result_types": ["route"], "snap_result_place_id": "ChIJ34Mqwn6WwjsRTkBgTy2X52A"}, {"raw_location": {"lat": 18.4291833792546, "lng": 73.75728777777778}, "snapped_location": {"lat": 18.4279316, "lng": 73.7586954}, "grid_x": 1, "grid_y": 17, "snap_result_types": ["route"], "snap_result_place_id": "ChIJybU8ay2UwjsRkCp-IlzMSVI"}, {"raw_location": {"lat": 18.4291833792546, "lng": 73.76944055555556}, "snapped_location": {"lat": 18.4281038, "lng": 73.7676693}, "grid_x": 2, "grid_y": 17, "snap_result_types": ["route"], "snap_result_place_id": "ChIJ48FN5DSUwjsR_kLhRBZdmQM"}, {"raw_location": {"lat": 18.4291833792546, "lng": 73.78159333333333}, "snapped_location": {"lat": 18.4328382, "lng": 73.78113689999999}, "grid_x": 3, "grid_y": 17, "snap_result_types": ["route"], "snap_result_place_id": "ChIJ63Ij8LKVwjsRfuAhlsbNxTg"}, {"raw_location": {"lat": 18.4291833792546, "lng": 73.79374611111112}, "snapped_location": {"lat": 18.4300017, "lng": 73.79606989999999}, "grid_x": 4, "grid_y": 17, "snap_result_types": ["route"], "snap_result_place_id": "ChIJm5WImP-UwjsR-kEdbdr51Ng"}, {"raw_location": {"lat": 18.4291833792546, "lng": 73.80589888888889}, "snapped_location": {"lat": 18.4293085, "lng": 73.8060089}, "grid_x": 5, "grid_y": 17, "snap_result_types": ["route"], "snap_result_place_id": "ChIJXwFNz_yUwjsRsKKy3WZirhE"}, {"raw_location": {"lat": 18.4291833792546, "lng": 73.81805166666668}, "snapped_location": {"lat": 18.4291393, "lng": 73.8166115}, "grid_x": 6, "grid_y": 17, "snap_result_types": ["route"], "snap_result_place_id": "ChIJqxMGouCUwjsRnG69d8AB-Xc"}, {"raw_location": {"lat": 18.4291833792546, "lng": 73.83020444444445}, "snapped_location": {"lat": 18.4291648, "lng": 73.8302666}, "grid_x": 7, "grid_y": 17, "snap_result_types": ["route"], "snap_result_place_id": "ChIJx46DqdCUwjsRcrWIHSDCKS4"}, {"raw_location": {"lat": 18.4291833792546, "lng": 73.84235722222223}, "snapped_location": {"lat": 18.4290339, "lng": 73.8418069}, "grid_x": 8, "grid_y": 17, "snap_result_types": ["route"], "snap_result_place_id": "ChIJ32fGMtOUwjsR5uTA_e9jJbk"}, {"raw_location": {"lat": 18.4291833792546, "lng": 73.85451}, "snapped_location": {"lat": 18.4297724, "lng": 73.8533349}, "grid_x": 9, "grid_y": 17, "snap_result_types": ["route"], "snap_result_place_id": "ChIJFw0PZC_rwjsRfrjgWumyl9w"}, {"raw_location": {"lat": 18.4291833792546, "lng": 73.86666277777778}, "snapped_location": {"lat": 18.4291273, "lng": 73.8662585}, "grid_x": 10, "grid_y": 17, "snap_result_types": ["route"], "snap_result_place_id": "ChIJKVq5bxjrwjsR-F20NidcKDk"}, {"raw_location": {"lat": 18.4291833792546, "lng": 73.87881555555556}, "snapped_location": {"lat": 18.4288535, "lng": 73.8803722}, "grid_x": 11, "grid_y": 17, "snap_result_types": ["route"], "snap_result_place_id": "ChIJB2S3nwXrwjsRoo0mur_ykUc"}, {"raw_location": {"lat": 18.4291833792546, "lng": 73.89096833333333}, "snapped_location": {"lat": 18.4295202, "lng": 73.8907713}, "grid_x": 12, "grid_y": 17, "snap_result_types": ["route"], "snap_result_place_id": "ChIJXSCF1KfrwjsRTF68SCR4Txk"}, {"raw_location": {"lat": 18.4291833792546, "lng": 73.90312111111112}, "snapped_location": {"lat": 18.427194, "lng": 73.9028024}, "grid_x": 13, "grid_y": 17, "snap_result_types": ["route"], "snap_result_place_id": "ChIJpa-CHbvrwjsRrLS2-QsjJRI"}, {"raw_location": {"lat": 18.4291833792546, "lng": 73.91527388888889}, "snapped_location": {"lat": 18.4288271, "lng": 73.9151711}, "grid_x": 14, "grid_y": 17, "snap_result_types": ["route"], "snap_result_place_id": "ChIJq1ag-MbrwjsROnxkjkpuy1g"}, {"raw_location": {"lat": 18.4291833792546, "lng": 73.92742666666668}, "snapped_location": {"lat": 18.4276172, "lng": 73.9250144}, "grid_x": 15, "grid_y": 17, "snap_result_types": ["route"], "snap_result_place_id": "ChIJq31vRtvrwjsREmd88qRdiP4"}, {"raw_location": {"lat": 18.4291833792546, "lng": 73.93957944444445}, "snapped_location": {"lat": 18.4289981, "lng": 73.94006089999999}, "grid_x": 16, "grid_y": 17, "snap_result_types": ["route"], "snap_result_place_id": "ChIJiUlOx2PpwjsRlI_Zjh_JWOo"}, {"raw_location": {"lat": 18.4291833792546, "lng": 73.95173222222223}, "snapped_location": {"lat": 18.4293153, "lng": 73.9503981}, "grid_x": 17, "grid_y": 17, "snap_result_types": ["route"], "snap_result_place_id": "ChIJXfgSJm_pwjsRwsqHm51VvS8"}, {"raw_location": {"lat": 18.4291833792546, "lng": 73.963885}, "snapped_location": {"lat": 18.4296038, "lng": 73.9636273}, "grid_x": 18, "grid_y": 17, "snap_result_types": ["route"], "snap_result_place_id": "ChIJQe6HYRTpwjsRVrd5bp6J5Eo"}, {"raw_location": {"lat": 18.417660051661425, "lng": 73.745135}, "snapped_location": {"lat": 18.4164764, "lng": 73.74686419999999}, "grid_x": 0, "grid_y": 18, "snap_result_types": ["route"], "snap_result_place_id": "ChIJh1HNqoKWwjsRKFYxkuoxDEs"}, {"raw_location": {"lat": 18.417660051661425, "lng": 73.75728777777778}, "snapped_location": {"lat": 18.4183853, "lng": 73.7575173}, "grid_x": 1, "grid_y": 18, "snap_result_types": ["route"], "snap_result_place_id": "ChIJf20EkS-UwjsR9FOkEXc1wYY"}, {"raw_location": {"lat": 18.417660051661425, "lng": 73.76944055555556}, "snapped_location": {"lat": 18.4173463, "lng": 73.76956009999999}, "grid_x": 2, "grid_y": 18, "snap_result_types": ["route"], "snap_result_place_id": "ChIJcTLcPjiUwjsRir2qnly_Ge0"}, {"raw_location": {"lat": 18.417660051661425, "lng": 73.78159333333333}, "snapped_location": {"lat": 18.4160957, "lng": 73.7819901}, "grid_x": 3, "grid_y": 18, "snap_result_types": ["route"], "snap_result_place_id": "ChIJeSDUs0SUwjsRGACnP9uUywI"}, {"raw_location": {"lat": 18.417660051661425, "lng": 73.79374611111112}, "snapped_location": {"lat": 18.417660051661425, "lng": 73.79374611111112}, "grid_x": 4, "grid_y": 18, "snap_result_types": null, "snap_result_place_id": null}, {"raw_location": {"lat": 18.417660051661425, "lng": 73.80589888888889}, "snapped_location": {"lat": 18.416852, "lng": 73.8057792}, "grid_x": 5, "grid_y": 18, "snap_result_types": ["route"], "snap_result_place_id": "ChIJnWo65fGUwjsRupDQbYbPSGE"}, {"raw_location": {"lat": 18.417660051661425, "lng": 73.81805166666668}, "snapped_location": {"lat": 18.4175243, "lng": 73.81848389999999}, "grid_x": 6, "grid_y": 18, "snap_result_types": ["route"], "snap_result_place_id": "ChIJ2YCd7cGUwjsRnNqi1-k0O-A"}, {"raw_location": {"lat": 18.417660051661425, "lng": 73.83020444444445}, "snapped_location": {"lat": 18.4169853, "lng": 73.83107059999999}, "grid_x": 7, "grid_y": 18, "snap_result_types": ["route"], "snap_result_place_id": "ChIJ71_0vMiUwjsRKP0tPaZH3CE"}, {"raw_location": {"lat": 18.417660051661425, "lng": 73.84235722222223}, "snapped_location": {"lat": 18.4178746, "lng": 73.84022139999999}, "grid_x": 8, "grid_y": 18, "snap_result_types": ["route"], "snap_result_place_id": "ChIJBf0tEMuUwjsRJPe7kT897q8"}, {"raw_location": {"lat": 18.417660051661425, "lng": 73.85451}, "snapped_location": {"lat": 18.4179761, "lng": 73.8545231}, "grid_x": 9, "grid_y": 18, "snap_result_types": ["route"], "snap_result_place_id": "ChIJ9xHlxTnrwjsRXrSqEk5leqQ"}, {"raw_location": {"lat": 18.417660051661425, "lng": 73.86666277777778}, "snapped_location": {"lat": 18.4164799, "lng": 73.8646495}, "grid_x": 10, "grid_y": 18, "snap_result_types": ["route"], "snap_result_place_id": "ChIJ7Rnu6D_rwjsRNhKUgLCxKHg"}, {"raw_location": {"lat": 18.417660051661425, "lng": 73.87881555555556}, "snapped_location": {"lat": 18.4169709, "lng": 73.8802284}, "grid_x": 11, "grid_y": 18, "snap_result_types": ["route"], "snap_result_place_id": "ChIJbwTB1QzrwjsRFKFmLw9k2k8"}, {"raw_location": {"lat": 18.417660051661425, "lng": 73.89096833333333}, "snapped_location": {"lat": 18.4162188, "lng": 73.8919616}, "grid_x": 12, "grid_y": 18, "snap_result_types": ["establishment", "park", "point_of_interest"], "snap_result_place_id": "ChIJATa8X_3rwjsRX0zygK24YqQ"}, {"raw_location": {"lat": 18.417660051661425, "lng": 73.90312111111112}, "snapped_location": {"lat": 18.4194802, "lng": 73.90216269999999}, "grid_x": 13, "grid_y": 18, "snap_result_types": ["route"], "snap_result_place_id": "ChIJjYWrcr3rwjsR-gadUtNT9Nw"}, {"raw_location": {"lat": 18.417660051661425, "lng": 73.91527388888889}, "snapped_location": {"lat": 18.4183727, "lng": 73.9172348}, "grid_x": 14, "grid_y": 18, "snap_result_types": ["route"], "snap_result_place_id": "ChIJ1cE8OerrwjsRtuZHDoMQyYA"}, {"raw_location": {"lat": 18.417660051661425, "lng": 73.92742666666668}, "snapped_location": {"lat": 18.4210305, "lng": 73.9268312}, "grid_x": 15, "grid_y": 18, "snap_result_types": ["route"], "snap_result_place_id": "ChIJfVqbbt3rwjsR_sgZ_pemGwI"}, {"raw_location": {"lat": 18.417660051661425, "lng": 73.93957944444445}, "snapped_location": {"lat": 18.4166932, "lng": 73.94120070000001}, "grid_x": 16, "grid_y": 18, "snap_result_types": ["route"], "snap_result_place_id": "ChIJ0YbzI1zpwjsR-Iav_hW5XGc"}, {"raw_location": {"lat": 18.417660051661425, "lng": 73.95173222222223}, "snapped_location": {"lat": 18.4115946, "lng": 73.9561028}, "grid_x": 17, "grid_y": 18, "snap_result_types": ["route"], "snap_result_place_id": "ChIJEaH1hEjpwjsRzshdYa7bmHI"}, {"raw_location": {"lat": 18.417660051661425, "lng": 73.963885}, "snapped_location": {"lat": 18.4172482, "lng": 73.96426629999999}, "grid_x": 18, "grid_y": 18, "snap_result_types": ["route"], "snap_result_place_id": "ChIJt4evRTnpwjsRWq7VUdWWqAU"}], "route_matrix": [{"originIndex": 0, "destinationIndex": 20, "status": {}, "distanceMeters": 3349, "duration": "1589s", "condition": "ROUTE_EXISTS"}, {"originIndex": 0, "destinationIndex": 38, "status": {}, "distanceMeters": 3684, "duration": "1513s", "condition": "ROUTE_EXISTS"}, {"originIndex": 0, "destinationIndex": 19, "status": {}, "distanceMeters": 4280, "duration": "2030s", "condition": "ROUTE_EXISTS"}, {"originIndex": 0, "destinationIndex": 2, "status": {}, "distanceMeters": 6405, "duration": "2382s", "condition": "ROUTE_EXISTS"}, {"originIndex": 0, "destinationIndex": 1, "status": {}, "distanceMeters": 4532, "duration": "1384s", "condition": "ROUTE_EXISTS"}, {"originIndex": 1, "destinationIndex": 39, "status": {}, "distanceMeters": 4258, "duration": "1939s", "condition": "ROUTE_EXISTS"}, {"originIndex": 1, "destinationIndex": 20, "status": {}, "distanceMeters": 4754, "duration": "2867s", "condition": "ROUTE_EXISTS"}, {"originIndex": 1, "destinationIndex": 21, "status": {}, "distanceMeters": 2463, "duration": "1115s", "condition": "ROUTE_EXISTS"}, {"originIndex": 1, "destinationIndex": 2, "status": {}, "distanceMeters": 3595, "duration": "1598s", "condition": "ROUTE_EXISTS"}, {"originIndex": 1, "destinationIndex": 3, "status": {}, "distanceMeters": 5820, "duration": "1758s", "condition": "ROUTE_EXISTS"}, {"originIndex": 1, "destinationIndex": 19, "status": {}, "distanceMeters": 5847, "duration": "3078s", "condition": "ROUTE_EXISTS"}, {"originIndex": 2, "destinationIndex": 3, "status": {}, "distanceMeters": 3067, "duration": "1234s", "condition": "ROUTE_EXISTS"}, {"originIndex": 2, "destinationIndex": 4, "status": {}, "distanceMeters": 7047, "duration": "2632s", "condition": "ROUTE_EXISTS"}, {"originIndex": 2, "destinationIndex": 40, "status": {}, "distanceMeters": 4125, "duration": "1811s", "condition": "ROUTE_EXISTS"}, {"originIndex": 2, "destinationIndex": 21, "status": {}, "distanceMeters": 2378, "duration": "1354s", "condition": "ROUTE_EXISTS"}, {"originIndex": 2, "destinationIndex": 22, "status": {}, "distanceMeters": 5138, "duration": "1952s", "condition": "ROUTE_EXISTS"}, {"originIndex": 2, "destinationIndex": 20, "status": {}, "distanceMeters": 5191, "duration": "2659s", "condition": "ROUTE_EXISTS"}, {"originIndex": 3, "destinationIndex": 21, "status": {}, "distanceMeters": 3780, "duration": "1361s", "condition": "ROUTE_EXISTS"}, {"originIndex": 3, "destinationIndex": 41, "status": {}, "distanceMeters": 3795, "duration": "1529s", "condition": "ROUTE_EXISTS"}, {"originIndex": 3, "destinationIndex": 22, "status": {}, "distanceMeters": 2398, "duration": "881s", "condition": "ROUTE_EXISTS"}, {"originIndex": 3, "destinationIndex": 5, "status": {}, "distanceMeters": 4634, "duration": "1284s", "condition": "ROUTE_EXISTS"}, {"originIndex": 3, "destinationIndex": 4, "status": {}, "distanceMeters": 4850, "duration": "1921s", "condition": "ROUTE_EXISTS"}, {"originIndex": 3, "destinationIndex": 23, "status": {}, "distanceMeters": 2771, "duration": "1362s", "condition": "ROUTE_EXISTS"}, {"originIndex": 4, "destinationIndex": 22, "status": {}, "distanceMeters": 2604, "duration": "1030s", "condition": "ROUTE_EXISTS"}, {"originIndex": 4, "destinationIndex": 5, "status": {}, "distanceMeters": 4252, "duration": "1425s", "condition": "ROUTE_EXISTS"}, {"originIndex": 4, "destinationIndex": 23, "status": {}, "distanceMeters": 1450, "duration": "1196s", "condition": "ROUTE_EXISTS"}, {"originIndex": 4, "destinationIndex": 6, "status": {}, "distanceMeters": 6449, "duration": "2145s", "condition": "ROUTE_EXISTS"}, {"originIndex": 4, "destinationIndex": 42, "status": {}, "distanceMeters": 4465, "duration": "1554s", "condition": "ROUTE_EXISTS"}, {"originIndex": 4, "destinationIndex": 24, "status": {}, "distanceMeters": 3056, "duration": "1861s", "condition": "ROUTE_EXISTS"}, {"originIndex": 4, "destinationIndex": 21, "status": {}, "distanceMeters": 4027, "duration": "1468s", "condition": "ROUTE_EXISTS"}, {"originIndex": 5, "destinationIndex": 25, "status": {}, "distanceMeters": 2512, "duration": "968s", "condition": "ROUTE_EXISTS"}, {"originIndex": 5, "destinationIndex": 6, "status": {}, "distanceMeters": 2591, "duration": "1080s", "condition": "ROUTE_EXISTS"}, {"originIndex": 5, "destinationIndex": 7, "status": {}, "distanceMeters": 3989, "duration": "1357s", "condition": "ROUTE_EXISTS"}, {"originIndex": 5, "destinationIndex": 23, "status": {}, "distanceMeters": 3015, "duration": "1161s", "condition": "ROUTE_EXISTS"}, {"originIndex": 5, "destinationIndex": 26, "status": {}, "distanceMeters": 9305, "duration": "4714s", "condition": "ROUTE_EXISTS"}, {"originIndex": 5, "destinationIndex": 24, "status": {}, "distanceMeters": 2609, "duration": "779s", "condition": "ROUTE_EXISTS"}, {"originIndex": 5, "destinationIndex": 43, "status": {}, "distanceMeters": 7453, "duration": "2220s", "condition": "ROUTE_EXISTS"}, {"originIndex": 6, "destinationIndex": 25, "status": {}, "distanceMeters": 5085, "duration": "1005s", "condition": "ROUTE_EXISTS"}, {"originIndex": 6, "destinationIndex": 7, "status": {}, "distanceMeters": 2692, "duration": "1349s", "condition": "ROUTE_EXISTS"}, {"originIndex": 6, "destinationIndex": 44, "status": {}, "distanceMeters": 7198, "duration": "2397s", "condition": "ROUTE_EXISTS"}, {"originIndex": 6, "destinationIndex": 26, "status": {}, "distanceMeters": 8155, "duration": "4724s", "condition": "ROUTE_EXISTS"}, {"originIndex": 6, "destinationIndex": 8, "status": {}, "distanceMeters": 4477, "duration": "1749s", "condition": "ROUTE_EXISTS"}, {"originIndex": 6, "destinationIndex": 24, "status": {}, "distanceMeters": 10395, "duration": "2035s", "condition": "ROUTE_EXISTS"}, {"originIndex": 7, "destinationIndex": 24, "status": {}, "distanceMeters": 10569, "duration": "1848s", "condition": "ROUTE_EXISTS"}, {"originIndex": 7, "destinationIndex": 8, "status": {}, "distanceMeters": 2587, "duration": "1318s", "condition": "ROUTE_EXISTS"}, {"originIndex": 7, "destinationIndex": 25, "status": {}, "distanceMeters": 6297, "duration": "1546s", "condition": "ROUTE_EXISTS"}, {"originIndex": 7, "destinationIndex": 45, "status": {}, "distanceMeters": 8078, "duration": "3791s", "condition": "ROUTE_EXISTS"}, {"originIndex": 7, "destinationIndex": 27, "status": {}, "distanceMeters": 2322, "duration": "1270s", "condition": "ROUTE_EXISTS"}, {"originIndex": 7, "destinationIndex": 9, "status": {}, "distanceMeters": 4731, "duration": "1427s", "condition": "ROUTE_EXISTS"}, {"originIndex": 7, "destinationIndex": 26, "status": {}, "distanceMeters": 6099, "duration": "4284s", "condition": "ROUTE_EXISTS"}, {"originIndex": 8, "destinationIndex": 46, "status": {}, "distanceMeters": 4829, "duration": "2980s", "condition": "ROUTE_EXISTS"}, {"originIndex": 8, "destinationIndex": 28, "status": {}, "distanceMeters": 4102, "duration": "2434s", "condition": "ROUTE_EXISTS"}, {"originIndex": 8, "destinationIndex": 9, "status": {}, "distanceMeters": 3047, "duration": "1321s", "condition": "ROUTE_EXISTS"}, {"originIndex": 8, "destinationIndex": 29, "status": {}, "distanceMeters": 10573, "duration": "3478s", "condition": "ROUTE_EXISTS"}, {"originIndex": 8, "destinationIndex": 27, "status": {}, "distanceMeters": 1373, "duration": "1140s", "condition": "ROUTE_EXISTS"}, {"originIndex": 8, "destinationIndex": 10, "status": {}, "distanceMeters": 4757, "duration": "1636s", "condition": "ROUTE_EXISTS"}, {"originIndex": 9, "destinationIndex": 47, "status": {}, "distanceMeters": 3993, "duration": "2560s", "condition": "ROUTE_EXISTS"}, {"originIndex": 9, "destinationIndex": 10, "status": {}, "distanceMeters": 1634, "duration": "749s", "condition": "ROUTE_EXISTS"}, {"originIndex": 9, "destinationIndex": 27, "status": {}, "distanceMeters": 2707, "duration": "1018s", "condition": "ROUTE_EXISTS"}, {"originIndex": 9, "destinationIndex": 29, "status": {}, "distanceMeters": 7207, "duration": "2616s", "condition": "ROUTE_EXISTS"}, {"originIndex": 9, "destinationIndex": 28, "status": {}, "distanceMeters": 3272, "duration": "1998s", "condition": "ROUTE_EXISTS"}, {"originIndex": 10, "destinationIndex": 12, "status": {}, "distanceMeters": 3799, "duration": "2222s", "condition": "ROUTE_EXISTS"}, {"originIndex": 10, "destinationIndex": 11, "status": {}, "distanceMeters": 7063, "duration": "3941s", "condition": "ROUTE_EXISTS"}, {"originIndex": 10, "destinationIndex": 48, "status": {}, "distanceMeters": 8223, "duration": "2697s", "condition": "ROUTE_EXISTS"}, {"originIndex": 10, "destinationIndex": 27, "status": {}, "distanceMeters": 4097, "duration": "1506s", "condition": "ROUTE_EXISTS"}, {"originIndex": 10, "destinationIndex": 28, "status": {}, "distanceMeters": 4682, "duration": "2536s", "condition": "ROUTE_EXISTS"}, {"originIndex": 10, "destinationIndex": 29, "status": {}, "distanceMeters": 6345, "duration": "2505s", "condition": "ROUTE_EXISTS"}, {"originIndex": 10, "destinationIndex": 30, "status": {}, "distanceMeters": 4854, "duration": "1760s", "condition": "ROUTE_EXISTS"}, {"originIndex": 11, "destinationIndex": 30, "status": {}, "distanceMeters": 3887, "duration": "3185s", "condition": "ROUTE_EXISTS"}, {"originIndex": 11, "destinationIndex": 49, "status": {}, "distanceMeters": 3066, "duration": "2449s", "condition": "ROUTE_EXISTS"}, {"originIndex": 11, "destinationIndex": 29, "status": {}, "distanceMeters": 4176, "duration": "3352s", "condition": "ROUTE_EXISTS"}, {"originIndex": 11, "destinationIndex": 31, "status": {}, "distanceMeters": 2531, "duration": "2085s", "condition": "ROUTE_EXISTS"}, {"originIndex": 11, "destinationIndex": 32, "status": {}, "distanceMeters": 4081, "duration": "3340s", "condition": "ROUTE_EXISTS"}, {"originIndex": 11, "destinationIndex": 13, "status": {}, "distanceMeters": 3858, "duration": "3136s", "condition": "ROUTE_EXISTS"}, {"originIndex": 11, "destinationIndex": 12, "status": {}, "distanceMeters": 2367, "duration": "1968s", "condition": "ROUTE_EXISTS"}, {"originIndex": 12, "destinationIndex": 13, "status": {}, "distanceMeters": 1948, "duration": "1534s", "condition": "ROUTE_EXISTS"}, {"originIndex": 12, "destinationIndex": 31, "status": {}, "distanceMeters": 2348, "duration": "1867s", "condition": "ROUTE_EXISTS"}, {"originIndex": 12, "destinationIndex": 32, "status": {}, "distanceMeters": 2172, "duration": "1738s", "condition": "ROUTE_EXISTS"}, {"originIndex": 12, "destinationIndex": 50, "status": {}, "distanceMeters": 4395, "duration": "3464s", "condition": "ROUTE_EXISTS"}, {"originIndex": 12, "destinationIndex": 14, "status": {}, "distanceMeters": 3855, "duration": "3112s", "condition": "ROUTE_EXISTS"}, {"originIndex": 12, "destinationIndex": 30, "status": {}, "distanceMeters": 5201, "duration": "2848s", "condition": "ROUTE_EXISTS"}, {"originIndex": 13, "destinationIndex": 14, "status": {},